"property name","property city","property state","zip code","property type","property subtype","year built","total units","occupancy %","monthly rent per unit","uw noi","most recent noi","appraised value","latitude","longitude","gross_rent_median","household_income_median","housing_units_occupancy_status_total_count","housing_units_occupied_count","state_name","cap_rate","cap_rate_rank_state","median_rent","rent_perc_diff","rent_affordability_ratio","rent_affordability_percentile","State Occupancy Rate"
"Wooddale Village Retirement Community","Sun City","AZ","85373","Multifamily","Independent Living","1984",172,"0.936","2983","2013944.92","2041838.99","29800000","33.65274","-112.27894","1431","76872",3142443,2796790,"Arizona","0.06851808691275167785","1","1534.0182556619718310","0.94456616731249523085","0.46565719637839525445","0.9571428571428572","0.89000500565960941853"
"El Encanto Apartments","Yuma","AZ","85364","Multifamily","Garden","1985",283,"0.946996466","1063.73","2338143.71","2372102.05","40800000","32.6792","-114.62877","1431","76872",3142443,2796790,"Arizona","0.05813975612745098039","2","1534.0182556619718310","-0.30657278942161563798","0.16605213862004370902","0.24285714285714285","0.89000500565960941853"
"Sunset Sound Studio Apartments","Phoenix","AZ","85006","Multifamily","Garden","1974",237,"0.928","944.95","1502183.53","1464121.64","25500000","33.45127","-112.03136","1431","76872",3142443,2796790,"Arizona","0.05741653490196078431","3","1534.0182556619718310","-0.38400341944286209575","0.14751014673743365595","0.12857142857142856","0.89000500565960941853"
"Sedona Springs","Tucson","AZ","85711","Multifamily","Garden","1973",408,"0.975","772.636152","2878742.75","2887651.41","51200000","32.22592","-110.85804","1431","76872",3142443,2796790,"Arizona","0.05639944160156250000","4","1534.0182556619718310","-0.49633184015363241814","0.12061132563221979394","0.02857142857142857","0.89000500565960941853"
"Woodlands Village Apartments","Flagstaff","AZ","86001","Multifamily","Student","1987",228,"0.974","1425","2693094","2685558","47700000","35.18413","-111.66503","1431","76872",3142443,2796790,"Arizona","0.05630100628930817610","5","1534.0182556619718310","-0.07106711752587807443","0.22244770527630346550","0.5857142857142857","0.89000500565960941853"
"Sanctuary On 22nd","Phoenix","AZ","85021","Multifamily","Garden","1985",266,"0.88","1279.59","2761494.54","3088017.19","55500000","33.56098","-112.10585","1431","76872",3142443,2796790,"Arizona","0.05563994936936936937","6","1534.0182556619718310","-0.16585738450171110545","0.19974867311895098345","0.4","0.89000500565960941853"
"Clearwater Agritopia","Gilbert","AZ","85296","Multifamily","Assisted Living","2014",118,"0.983","5815","2480514.13","2452457","44300000","33.32329","-111.72967","1431","76872",3142443,2796790,"Arizona","0.05536020316027088036","7","1534.0182556619718310","2.7906980432189607","0.90774274118014361536","0.9857142857142858","0.89000500565960941853"
"Port Royale","Sierra Vista","AZ","85635","Multifamily","Garden","2004",252,"0.917","1216.3","2632918.5","2639629.72","49000000","31.56851","-110.24891","1431","76872",3142443,2796790,"Arizona","0.05386999428571428571","8","1534.0182556619718310","-0.20711504213805298381","0.18986887293162660006","0.32857142857142857","0.89000500565960941853"
"Enclave On Bethany","Glendale","AZ","85303","Multifamily","Garden","1974",120,"0.917","1505.65","1411000.25","1347329","25150000","33.52387","-112.20599","1431","76872",3142443,2796790,"Arizona","0.05357172962226640159","9","1534.0182556619718310","-0.01849277579146548967","0.23503746487667811427","0.6714285714285714","0.89000500565960941853"
"Park Villas","Glendale","AZ","85301","Multifamily","Garden","1965",205,"0.898","1295.92","2336793.38","2428504.31","45700000","33.53341","-112.19888","1431","76872",3142443,2796790,"Arizona","0.05314013807439824945","10","1534.0182556619718310","-0.15521213960991993980","0.20229784576959100843","0.42857142857142855","0.89000500565960941853"
"Pine View Village Apartments","Flagstaff","AZ","86001","Multifamily","Student","1982",264,"0.966","1098","2136431.28","1999736","37700000","35.19421","-111.6605","1431","76872",3142443,2796790,"Arizona","0.05304339522546419098","11","1534.0182556619718310","-0.28423276845151868472","0.17140181080237277552","0.2714285714285714","0.89000500565960941853"
"Park At Palm Valley","Glendale","AZ","85307","Multifamily","Garden","1982",300,"0.863","1313.03","3629160.35","3720834.67","70900000","33.53369","-112.34234","1431","76872",3142443,2796790,"Arizona","0.05248003765867418900","12","1534.0182556619718310","-0.14405842619298504426","0.20496877926943490478","0.44285714285714284","0.89000500565960941853"
"Tides On Chandler","Chandler","AZ","85225","Multifamily","Garden","1984",248,"0.923","1408.9","3308233.48","3405774.3","65200000","33.33616","-111.85384","1431","76872",3142443,2796790,"Arizona","0.05223580214723926380","13","1534.0182556619718310","-0.08156242939102429409","0.21993443646581330003","0.5714285714285714","0.89000500565960941853"
"Juniper Canyon","Tucson","AZ","85705","Multifamily","Garden","1985",140,"0.921","978","1076973.25","1019635.44","19800000","32.26294","-110.99511","1431","76872",3142443,2796790,"Arizona","0.05149673939393939394","14","1534.0182556619718310","-0.36245869539670789951","0.15266937246331564159","0.15714285714285714","0.89000500565960941853"
"Ovation At Tempe","Tempe","AZ","85282","Multifamily","Garden","1983",270,"0.93","1601.55","3462894.51","3431058.03","67000000","33.38501","-111.95221","1431","76872",3142443,2796790,"Arizona","0.05120982134328358209","15","1534.0182556619718310","0.04402277749223155782","0.25000780518264127381","0.7857142857142857","0.89000500565960941853"
"Highland Village Apartments","Flagstaff","AZ","86001","Multifamily","Student","1997",600,"0.982","825","3775899.11","3688571","72100000","35.17836","-111.67093","1431","76872",3142443,2796790,"Arizona","0.05115909847434119279","16","1534.0182556619718310","-0.46219675225182414836","0.12878551358101779582","0.07142857142857142","0.89000500565960941853"
"Verrano Park","Tucson","AZ","85730","Multifamily","Garden","1980",92,"0.924","782.98","617418.38","615955.92","12100000","32.19185","-110.84716","1431","76872",3142443,2796790,"Arizona","0.05090544793388429752","17","1534.0182556619718310","-0.48958886433713123840","0.12222603808929128942","0.04285714285714286","0.89000500565960941853"
"Peoria Grand Apartment Homes","Peoria","AZ","85345","Multifamily","Garden","1985",144,"0.924","1443","1700072.16","1554296.93","30600000","33.58104","-112.24307","1431","76872",3142443,2796790,"Arizona","0.05079401732026143791","18","1534.0182556619718310","-0.05933322848409969222","0.22525757102716203559","0.6142857142857143","0.89000500565960941853"
"Clearwater Pinnacle Peak","Scottsdale","AZ","85255","Multifamily","Assisted Living","2019",110,"0.909","6998.36","3162329.65","3172488","62700000","33.7014","-111.92291","1431","76872",3142443,2796790,"Arizona","0.05059789473684210526","19","1534.0182556619718310","3.5621099841344533","1.0924695597876990","1","0.89000500565960941853"
"Morada West","Phoenix","AZ","85035","Multifamily","Garden","1998",428,"0.932","1581","5643889.05","5582127.38","111000000","33.46584","-112.19166","1431","76872",3142443,2796790,"Arizona","0.05028943585585585586","20","1534.0182556619718310","0.03062658750286790478","0.24679987511707773962","0.7428571428571429","0.89000500565960941853"
"Envii Apartments","Tucson","AZ","85718","Multifamily","Garden","1983",424,"0.925","1382","4847140","4811099.02","95700000",NULL,NULL,"1431","76872",3142443,2796790,"Arizona","0.05027271703239289446","21","1534.0182556619718310","-0.09909807468123754307","0.21573524820480799251","0.5428571428571428","0.89000500565960941853"
"Ninety Degrees","Phoenix","AZ","85054","Multifamily","Garden","2009",337,"0.941","1716.86","4993558.13","4885492.81","97500000","33.65339","-111.93423","1431","76872",3142443,2796790,"Arizona","0.05010761856410256410","22","1534.0182556619718310","0.11919137445931296079","0.26800811738994692476","0.8571428571428571","0.89000500565960941853"
"Lunaire Apartments","Goodyear","AZ","85338","Multifamily","Garden","2008",240,"0.9375","1578","3405159.58","3464909.52","69200000","33.43825","-112.38819","1431","76872",3142443,2796790,"Arizona","0.05007094682080924855","23","1534.0182556619718310","0.02867093932923817442","0.24633156415860131127","0.7285714285714285","0.89000500565960941853"
"Liv Avenida","Chandler","AZ","85248","Multifamily","Garden","2014",322,"0.938","1899.72","4831567.51","4855527.77","97300000","33.25855","-111.8415","1431","76872",3142443,2796790,"Arizona","0.04990264922918807811","24","1534.0182556619718310","0.23839464946929045925","0.29655323134561348736","0.8857142857142857","0.89000500565960941853"
"Mesa Station","Mesa","AZ","85203","Multifamily","Garden","1984",397,"0.935","1254.28","4032303.88","4061093.24","81800000","33.41705","-111.78812","1431","76872",3142443,2796790,"Arizona","0.04964661662591687042","25","1534.0182556619718310","-0.18235653625990059733","0.19579768966593818295","0.37142857142857144","0.89000500565960941853"
"Sienna Ridge","Tucson","AZ","85711","Multifamily","Garden","1975",305,"0.904918033","792.67","1991257.91","1943553.24","39300000","32.20699","-110.87825","1431","76872",3142443,2796790,"Arizona","0.04945428091603053435","26","1534.0182556619718310","-0.48327212073630720931","0.12373868248517015298","0.05714285714285714","0.89000500565960941853"
"The Catherine Townhomes At Scottsdale","Scottsdale","AZ","85255","Multifamily","Townhome","1998",539,"0.913","2075","8734307.43","8909995","180500000","33.64134","-111.92788","1431","76872",3142443,2796790,"Arizona","0.04936285318559556787","27","1534.0182556619718310","0.35265665342723017231","0.32391507961286294099","0.9285714285714286","0.89000500565960941853"
"Modena Apartments","Phoenix","AZ","85008","Multifamily","Garden","1987",768,"0.931","1504","10447641.84","10090082.3","204600000","33.45735","-111.96967","1431","76872",3142443,2796790,"Arizona","0.04931614027370478983","28","1534.0182556619718310","-0.01956838228696184137","0.23477989384951607868","0.6571428571428571","0.89000500565960941853"
"Verde Vista Apartments","Cottonwood","AZ","86326","Multifamily","Garden","1998",72,"0.972","885","450176.18","448938","9200000","34.7215","-112.00765","1431","76872",3142443,2796790,"Arizona","0.04879760869565217391","29","1534.0182556619718310","-0.42308378877922954096","0.13815173275054636278","0.1","0.89000500565960941853"
"Country Gables Apartments","Glendale","AZ","85306","Multifamily","Garden","1983",139,"0.935","1286.42","1547065.95","1398442","28900000","33.62089","-112.18583","1431","76872",3142443,2796790,"Arizona","0.04838899653979238754","30","1534.0182556619718310","-0.16140502549308075264","0.20081486106774898533","0.4142857142857143","0.89000500565960941853"
"The Curve At Melrose","Phoenix","AZ","85013","Multifamily","Mid Rise","2018",204,"0.951","1624.17","3043947.71","3069990","64000000","33.49884","-112.08237","1431","76872",3142443,2796790,"Arizona","0.04796859375000000000","31","1534.0182556619718310","0.05876836472139972480","0.25353886980955354355","0.8285714285714286","0.89000500565960941853"
"The Flin","Tucson","AZ","85701","Multifamily","Mid Rise","2021",245,"0.992","1992.19","4632858","4610077.67","96500000","32.22098","-110.97253","1431","76872",3142443,2796790,"Arizona","0.04777282559585492228","32","1534.0182556619718310","0.29867424500780418168","0.31098813612238526382","0.9142857142857143","0.89000500565960941853"
"The U At Park","Tucson","AZ","85719","Multifamily","Student","1971",218,"0.991","591","973112.85","746398.6","15700000","32.24322","-110.95691","1431","76872",3142443,2796790,"Arizona","0.04754131210191082803","33","1534.0182556619718310","-0.61473730979494311719","0.09225725881985638464","0","0.89000500565960941853"
"The Joshua","Mesa","AZ","85210","Multifamily","Garden","1985",276,"0.931","1583.59","3744568.7","3553945.49","75000000","33.38364","-111.84861","1431","76872",3142443,2796790,"Arizona","0.04738593986666666667","34","1534.0182556619718310","0.03231496375943490534","0.24720418357789572276","0.7714285714285715","0.89000500565960941853"
"Solaire On Scottsdale","Tempe","AZ","85288","Multifamily","Garden","1963",124,"0.96","1515","1405725.52","1338629.01","28300000","33.45024","-111.92732","1431","76872",3142443,2796790,"Arizona","0.04730137844522968198","35","1534.0182556619718310","-0.01239767231698616335","0.23649703403059631595","0.6857142857142857","0.89000500565960941853"
"Bayside Apartments","Phoenix","AZ","85027","Multifamily","Garden","1999",176,"0.92","1620","2378246.88","2172899.65","46000000","33.67062","-112.12859","1431","76872",3142443,2796790,"Arizona","0.04723694891304347826","36","1534.0182556619718310","0.05605001376005439959","0.25288791757727130815","0.8","0.89000500565960941853"
"Country Club Vista","Flagstaff","AZ","86004","Multifamily","Garden","1986",132,"0.985","1498","1515526.4","1345708","29000000","35.21394","-111.57638","1431","76872",3142443,2796790,"Arizona","0.04640372413793103448","37","1534.0182556619718310","-0.02347967863422130211","0.23384327193256322198","0.6428571428571429","0.89000500565960941853"
"Omnia On Thomas","Phoenix","AZ","85016","Multifamily","Garden","1964",382,"0.895","1149","3460370.84","3229183","70000000","33.48013","-112.04623","1431","76872",3142443,2796790,"Arizona","0.04613118571428571429","38","1534.0182556619718310","-0.25098674949981326844","0.17936309709647205745","0.2857142857142857","0.89000500565960941853"
"Village At Aspen Place","Flagstaff","AZ","86001","Multifamily","Mid Rise","2015",222,"0.964","2208.75","4219189.16","4174467.49","90500000","35.1913","-111.6439","1431","76872",3142443,2796790,"Arizona","0.04612671259668508287","39","1534.0182556619718310","0.43984596783488898463","0.34479394317827037153","0.9428571428571428","0.89000500565960941853"
"San Portella Apartments","Tempe","AZ","85282","Multifamily","Garden","2008",308,"0.961","1959.51","5205336.23","4981372.06","108000000","33.40418","-111.96385","1431","76872",3142443,2796790,"Arizona","0.04612381537037037037","40","1534.0182556619718310","0.27737071756973098552","0.30588666874804870434","0.9","0.89000500565960941853"
"The Crossings On Grande","Tucson","AZ","85745","Multifamily","Garden","1982",144,"0.91","935.99","889717.22","824834.95","18000000","32.22666","-110.98912","1431","76872",3142443,2796790,"Arizona","0.04582416388888888889","41","1534.0182556619718310","-0.38984428865476955712","0.14611145800811738995","0.11428571428571428","0.89000500565960941853"
"Clarendon Park Apartments","Phoenix","AZ","85013","Multifamily","Garden","2002",138,"0.783","1581.71","1858774.65","1690339.89","37000000","33.49154","-112.07685","1431","76872",3142443,2796790,"Arizona","0.04568486189189189189","42","1534.0182556619718310","0.03108942423729360764","0.24691070871058382766","0.7571428571428571","0.89000500565960941853"
"Legacy Pines (f/k/a Renew Flagstaff)","Flagstaff","AZ","86001","Multifamily","Garden","1972",132,"0.947","1757","2095041.62","1886415.82","41300000","35.2019","-111.63354","1431","76872",3142443,2796790,"Arizona","0.04567592784503631961","43","1534.0182556619718310","0.14535794702247875314","0.27427411801436153606","0.8714285714285714","0.89000500565960941853"
"The Venue On Camelback","Phoenix","AZ","85016","Multifamily","Garden","1970",415,"0.947","1085.7","3682692.82","3671621.95","80600000","33.50933","-112.0399","1431","76872",3142443,2796790,"Arizona","0.04555362220843672457","44","1534.0182556619718310","-0.29225092596340057924","0.16948173587261941929","0.2571428571428571","0.89000500565960941853"
"Mission Springs","Tempe","AZ","85283","Multifamily","Garden","1987",306,"0.899","1370.03","3473379.74","3290796.5","73400000","33.37816","-111.95836","1431","76872",3142443,2796790,"Arizona","0.04483373978201634877","45","1534.0182556619718310","-0.10690111089402016724","0.21386668748048704340","0.5285714285714286","0.89000500565960941853"
"Ora Apartments","Peoria","AZ","85382","Multifamily","Garden","2003",336,"0.938","1680.45","5110234.84","5028961.52","113000000","33.66161","-112.23597","1431","76872",3142443,2796790,"Arizona","0.04450408424778761062","46","1534.0182556619718310","0.09545632445869346654","0.26232438339057133937","0.8428571428571429","0.89000500565960941853"
"Sky Island Apartment Homes","Sierra Vista","AZ","85635","Multifamily","Garden","1985",196,"0.862","829.79","1108836.88","903724.07","20400000","31.56362","-110.29398","1431","76872",3142443,2796790,"Arizona","0.04430019950980392157","47","1534.0182556619718310","-0.45907423400126201220","0.12953325007805182641","0.08571428571428572","0.89000500565960941853"
"Arches At Hidden Creek","Chandler","AZ","85224","Multifamily","Garden","1985",432,"0.905","1466.75","5902402.63","5660880.25","129400000","33.30341","-111.86972","1431","76872",3142443,2796790,"Arizona","0.04374714258114374034","48","1534.0182556619718310","-0.04385101377619766012","0.22896503278176709335","0.6285714285714286","0.89000500565960941853"
"The Place At El Prado","Mesa","AZ","85202","Multifamily","Garden","1979",432,"0.94","1342","4703093.21","4381686","101300000","33.39507","-111.86465","1431","76872",3142443,2796790,"Arizona","0.04325455083909180652","49","1534.0182556619718310","-0.12517338366296728133","0.20949110209178894786","0.4714285714285714","0.89000500565960941853"
"Montecito Apartments","Phoenix","AZ","85020","Multifamily","Garden","1983",92,"0.935","1360","1004850.98","957027.22","22350000","33.57478","-112.05445","1431","76872",3142443,2796790,"Arizona","0.04282000984340044743","50","1534.0182556619718310","-0.11343949462118889911","0.21230096784264751795","0.5142857142857142","0.89000500565960941853"
"Clearwater Ahwatukee","Phoenix","AZ","85048","Multifamily","Assisted Living","2016",137,"0.985","4681.78","2858609.37","2119666.92","49700000","33.30266","-111.97594","1431","76872",3142443,2796790,"Arizona","0.04264923380281690141","51","1534.0182556619718310","2.0519715021120663","0.73084295972525757103","0.9714285714285714","0.89000500565960941853"
"The Place At Creekside","Tucson","AZ","85748","Multifamily","Garden","2011",352,"0.855","1395.74","3384316.46","3463664","82100000","32.23553","-110.7801","1431","76872",3142443,2796790,"Arizona","0.04218835566382460414","52","1534.0182556619718310","-0.09014120604601337797","0.21788011239463003434","0.5571428571428572","0.89000500565960941853"
"The Perry","Glendale","AZ","85301","Multifamily","Garden","1985",148,"0.973","1278.67","1630317","1366984","32500000","33.52802","-112.20299","1431","76872",3142443,2796790,"Arizona","0.04206104615384615385","53","1534.0182556619718310","-0.16645711660829088943","0.19960505775835154543","0.38571428571428573","0.89000500565960941853"
"Terra Vida","Mesa","AZ","85202","Multifamily","Garden","1988",384,"0.961","1345.75","4203185.82","3960339","94600000","33.41185","-111.88538","1431","76872",3142443,2796790,"Arizona","0.04186404862579281184","54","1534.0182556619718310","-0.12272882344593011837","0.21007649078988448330","0.4857142857142857","0.89000500565960941853"
"Village At Lindsay Park","Mesa","AZ","85204","Multifamily","Garden","1997",256,"0.961","1532.58","3370432.86","3111017.96","74500000","33.38869","-111.77111","1431","76872",3142443,2796790,"Arizona","0.04175863033557046980","55","1534.0182556619718310","-0.00093757401951594338","0.23924133624726818608","0.7","0.89000500565960941853"
"Red Sage Apartments","Phoenix","AZ","85031","Multifamily","Garden","1985",156,"0.929","1355","1775683.64","1439906.78","34900000","33.48063","-112.18216","1431","76872",3142443,2796790,"Arizona","0.04125807392550143266","56","1534.0182556619718310","-0.11669890824390511639","0.21152044957852013737","0.5","0.89000500565960941853"
"Eastyn Park Apartments","Tucson","AZ","85710","Multifamily","Garden","1973",279,"0.885","1043","1844021.72","1809823.12","45400000","32.22112","-110.84595","1431","76872",3142443,2796790,"Arizona","0.03986394537444933921","57","1534.0182556619718310","-0.32008631830139707483","0.16281610989697158914","0.22857142857142856","0.89000500565960941853"
"Palisade Park","Phoenix","AZ","85015","Multifamily","Garden","1972",214,"0.939","1200.28","1994882.55","1844462.42","46400000","33.48181","-112.11258","1431","76872",3142443,2796790,"Arizona","0.03975134525862068966","58","1534.0182556619718310","-0.21755820338523574399","0.18736809241336247268","0.3","0.89000500565960941853"
"Ridgewood Garden Apartments","Tucson","AZ","85730","Multifamily","Garden","1970",171,"0.9824","998","1069674.8","1120357.63","28300000","32.18376","-110.82396","1431","76872",3142443,2796790,"Arizona","0.03958860883392226148","59","1534.0182556619718310","-0.34942104090584303038","0.15579144551982516391","0.18571428571428572","0.89000500565960941853"
"Dimension On 27th","Phoenix","AZ","85017","Multifamily","Garden","1982",260,"0.923","995","2209495.27","1863062.07","47100000","33.52668","-112.1168","1431","76872",3142443,2796790,"Arizona","0.03955545796178343949","60","1534.0182556619718310","-0.35137668907947276075","0.15532313456134873556","0.17142857142857143","0.89000500565960941853"
"Crestone At Shadow Mountain","Phoenix","AZ","85032","Multifamily","Garden","1992",248,"0.948","1564.92","3475867.68","3117772.99","79300000","33.61142","-112.01667","1431","76872",3142443,2796790,"Arizona","0.03931617894073139975","61","1534.0182556619718310","0.02014431329221255000","0.24428972837964408367","0.7142857142857143","0.89000500565960941853"
"Serena Park","Glendale","AZ","85302","Multifamily","Garden","1985",141,"0.936","1212","1465935.08","1156088","29700000","33.56155","-112.18634","1431","76872",3142443,2796790,"Arizona","0.03892552188552188552","62","1534.0182556619718310","-0.20991813785358893068","0.18919762722447705276","0.3142857142857143","0.89000500565960941853"
"Brookfield Apartments","Phoenix","AZ","85029","Multifamily","Garden","1984",124,"0.952","1220","1334303.85","1215814.24","31900000","33.59517","-112.15124","1431","76872",3142443,2796790,"Arizona","0.03811329905956112853","63","1534.0182556619718310","-0.20470307605724298303","0.19044645644708086169","0.34285714285714286","0.89000500565960941853"
"Desert Mirage","Gilbert","AZ","85233","Multifamily","Garden","1999",258,"0.977","1621","3520979.01","3253213.44","86000000","33.36418","-111.81798","1431","76872",3142443,2796790,"Arizona","0.03782806325581395349","64","1534.0182556619718310","0.05670189648459764305","0.25304402123009678426","0.8142857142857143","0.89000500565960941853"
"Tides On South Mill","Tempe","AZ","85282","Multifamily","Garden","1969",515,"0.911","1318.79","5721719.28","5420163","147800000","33.38956","-111.93964","1431","76872",3142443,2796790,"Arizona","0.03667228010825439783","65","1534.0182556619718310","-0.14030358169961596195","0.20586793630970964721","0.45714285714285713","0.89000500565960941853"
"Terracina, La Mirada & Villa Serena","Yuma","AZ","85364","Multifamily","Garden","Various",240,"0.979","973.8","1746168.58","1236473.72","35000000",NULL,NULL,"1431","76872",3142443,2796790,"Arizona","0.03532782057142857143","66","1534.0182556619718310","-0.36519660283978952202","0.15201373712144864190","0.14285714285714285","0.89000500565960941853"
"Vantage Point","Gilbert","AZ","85234","Multifamily","Garden","1984",80,"0.888","1430.81","1037739.11","799936.19","23500000","33.3676","-111.79001","1431","76872",3142443,2796790,"Arizona","0.03403983787234042553","67","1534.0182556619718310","-0.06727967889628182995","0.22335466749921948174","0.6","0.89000500565960941853"
"Longhaven Estates","Phoenix","AZ","85031","Multifamily","MHC Age Restricted","1965",314,"0.943","615","1358767.24","1270444.89","50000000","33.50687","-112.17126","1431","76872",3142443,2796790,"Arizona","0.02540889780000000000","68","1534.0182556619718310","-0.59909212440590527423","0.09600374648766781143","0.014285714285714285","0.89000500565960941853"
"Marana Apartments","Marana","AZ","85653","Multifamily","Garden","2003",80,"0.988","1027","579538.72","417782.54","16500000","32.44936","-111.20856","1431","76872",3142443,2796790,"Arizona","0.02532015393939393939","69","1534.0182556619718310","-0.33051644189408897014","0.16031845145176397128","0.21428571428571427","0.89000500565960941853"
"The Molino","Tempe","AZ","85283","Multifamily","Garden","1982",141,"0.879","1234","1429105.7","848646.94","35700000","33.37773","-111.96528","1431","76872",3142443,2796790,"Arizona","0.02377162296918767507","70","1534.0182556619718310","-0.19557671791363757463","0.19263190758663752732","0.35714285714285715","0.89000500565960941853"
"Bradshaw Vista Apartments","Wickenburg","AZ","85390","Multifamily","Garden","2004",48,"0.979","1016","319251.89","227311.73","12900000","33.98147","-112.74064","1431","76872",3142443,2796790,"Arizona","0.01762106434108527132","71","1534.0182556619718310","-0.33768715186406464816","0.15860131127068373400","0.2","0.89000500565960941853"
"Holiday By Atria Simi Hills","Simi Valley","CA","93065","Multifamily","Independent Living","2006",98,"0.928571429","4207.061224","1745254.79","1970488","27300000","34.25656","-118.80849","1956","96334",14532683,13434847,"California","0.07217904761904761905","1","2339.5527564235294118","0.79823310778053486629","0.52405936313243506965","0.9285714285714286","0.92445744533201474222"
"The Landing","Ontario","CA","91761","Multifamily","Garden","1986",156,"0.981","1992.75","2157892.57","2540594.8","35590000","34.02323","-117.57789","1956","96334",14532683,13434847,"California","0.07138507445911772970","2","2339.5527564235294118","-0.14823463821080326289","0.24823011605456017605","0.38095238095238093","0.92445744533201474222"
"Atria Covell Gardens","Davis","CA","95616","Multifamily","Assisted Living","1987",157,"0.821656051","6005","4009391.12","4253544","61200000","38.56218","-121.76277","1956","96334",14532683,13434847,"California","0.06950235294117647059","3","2339.5527564235294118","1.5667298946401337","0.74802250503456723483","0.9880952380952381","0.92445744533201474222"
"Holiday By Atria Golden Oaks","Yucaipa","CA","92399","Multifamily","Independent Living","2008",120,"0.958333333","3629.341667","2146353.44","2502437","36400000","34.03114","-117.0758","1956","96334",14532683,13434847,"California","0.06874826923076923077","4","2339.5527564235294118","0.55129721141581301641","0.45209479523325098096","0.9166666666666666","0.92445744533201474222"
"Atria Del Rey","Rancho Cucamonga","CA","91730","Multifamily","Assisted Living","1987",99,"0.828282828","4742.575758","1741089.57","1807235","26900000","34.12147","-117.61373","1956","96334",14532683,13434847,"California","0.06718345724907063197","5","2339.5527564235294118","1.0271292215910395","0.59076659430730583179","0.9404761904761905","0.92445744533201474222"
"The Pointe And The Villas","Santee","CA","92071","Multifamily","Independent Living","2014",114,"1","5138.98","3321603.83","3536442.25","56300000","32.83327","-116.95825","1956","96334",14532683,13434847,"California","0.06281424955595026643","6","2339.5527564235294118","1.1965651280529149","0.64014532771399505886","0.9761904761904762","0.92445744533201474222"
"Arroyo Vista","San Diego","CA","92114","Multifamily","Garden","1986",56,"0.964","1995.63","867554.3","1040943","16900000","32.69803","-117.02613","1956","96334",14532683,13434847,"California","0.06159426035502958580","7","2339.5527564235294118","-0.14700363369846961010","0.24858886789710797849","0.39285714285714285","0.92445744533201474222"
"Geneva Village Apartments","Fresno","CA","93706","Multifamily","Garden","2007",142,"0.993","718.45","860562.59","896177.31","14740000","36.71406","-119.79248","1956","96334",14532683,13434847,"California","0.06079900339213025780","8","2339.5527564235294118","-0.69291139170621081632","0.08949488238835717400","0.03571428571428571","0.92445744533201474222"
"Atria Del Sol","Mission Viejo","CA","92692","Multifamily","Assisted Living","1985",90,"0.877777778","6709.066667","1985814.93","2065795","34600000","33.61743","-117.6511","1956","96334",14532683,13434847,"California","0.05970505780346820809","9","2339.5527564235294118","1.8676706043834376","0.83572570436190753005","1","0.92445744533201474222"
"Happy Valley City Lights","Los Angeles","CA","90032","Multifamily","Garden","2003",70,"0.971","1800","1114137.4","1275793.75","21730000","34.07747","-118.19337","1956","96334",14532683,13434847,"California","0.05871117119190059825","10","2339.5527564235294118","-0.23062217979146700449","0.22421990159237652335","0.2857142857142857","0.92445744533201474222"
"The Reserve At Rancho Belago","Moreno Valley","CA","92555","Multifamily","Garden","2005",176,"0.977","2145.49","2981380.43","2963509.5","53600000","33.90086","-117.17388","1956","96334",14532683,13434847,"California","0.05528935634328358209","11","2339.5527564235294118","-0.08294865584488585748","0.26725642037079328171","0.5119047619047619","0.92445744533201474222"
"Pacific Pines","Pacifica","CA","94044","Multifamily","Garden","2004",10,"1","2590","153228.7","165554","3000000","37.62875","-122.48981","1956","96334",14532683,13434847,"California","0.05518466666666666667","12","2339.5527564235294118","0.10704919685561136576","0.32262752506903066415","0.6785714285714286","0.92445744533201474222"
"La Vista Apartment Homes","Santa Maria","CA","93458","Multifamily","Garden","1978",460,"0.867","2035.28","6780951.78","7190389","130300000","34.94546","-120.44936","1956","96334",14532683,13434847,"California","0.05518333844973138910","13","2339.5527564235294118","-0.13005595004776498050","0.25352793406274005024","0.44047619047619047","0.92445744533201474222"
"Sagewood At Stonebridge Estates","San Diego","CA","92131","Multifamily","Garden","2006",106,"0.981","1711","1429090.14","1482468.91","26950000","32.92621","-117.01637","1956","96334",14532683,13434847,"California","0.05500812282003710575","14","2339.5527564235294118","-0.26866363867955558038","0.21313347312475346191","0.25","0.92445744533201474222"
"Newport Palms Apartments (fka Camden Sea Palms)","Costa Mesa","CA","92627","Multifamily","Garden","1989",138,"0.942","2676.25","2849349.34","3407295.1","61950000","33.64174","-117.94053","1956","96334",14532683,13434847,"California","0.05500072800645682002","15","2339.5527564235294118","0.14391521740727023846","0.33337139535366537256","0.7380952380952381","0.92445744533201474222"
"Village Square","La Jolla","CA","92037","Multifamily","Garden","1979",116,"0.948","2287.16","2175237.85","2294071","42380000","32.86425","-117.23336","1956","96334",14532683,13434847,"California","0.05413098159509202454","16","2339.5527564235294118","-0.02239434707325093000","0.28490377229223327174","0.5476190476190477","0.92445744533201474222"
"Gateway City Lights","Los Angeles","CA","90044","Multifamily","Garden","2001",72,"0.972","1655","981246.3","1072815.29","19880000","33.91752","-118.28327","1956","96334",14532683,13434847,"California","0.05396455181086519115","17","2339.5527564235294118","-0.29259983753048771802","0.20615774285299063674","0.2261904761904762","0.92445744533201474222"
"Barclay Square Apartment Homes","San Diego","CA","92117","Multifamily","Garden","1968",270,"0.974","2296.5","4234429.46","4909914.42","91100000","32.82079","-117.17436","1956","96334",14532683,13434847,"California","0.05389587727771679473","18","2339.5527564235294118","-0.01840213105061331990","0.28606722444827371437","0.5595238095238095","0.92445744533201474222"
"Tides At Grand Terrace","Colton","CA","92324","Multifamily","Garden","1986",366,"0.907","1862.9","5327721.12","5560610","103200000","34.04851","-117.29943","1956","96334",14532683,13434847,"California","0.05388187984496124031","19","2339.5527564235294118","-0.20373669929640215704","0.23205514148691012519","0.34523809523809523","0.92445744533201474222"
"The Plaza At Lantern Crest","Santee","CA","92071","Multifamily","Independent Living","2021",113,"0.920353982","5036.8","3485867.8","3199521.84","59500000","32.84141","-116.95567","1956","96334",14532683,13434847,"California","0.05377347630252100840","20","2339.5527564235294118","1.1528901137924106","0.62741711130026781822","0.9642857142857143","0.92445744533201474222"
"The Oaks At Nipomo","Nipomo","CA","93444","Multifamily","Assisted Living","2017",97,"0.959","4842.93","1563418.4","1649462","30800000","35.03739","-120.4879","1956","96334",14532683,13434847,"California","0.05355396103896103896","21","2339.5527564235294118","1.0700238482347282","0.60326738223264890900","0.9523809523809523","0.92445744533201474222"
"Mission Palms II","Riverside","CA","92509","Multifamily","Age Restricted","2007",92,"0.989","893.88","331990.93","358304.12","6700000","34.00056","-117.41372","1956","96334",14532683,13434847,"California","0.05347822686567164179","22","2339.5527564235294118","-0.61792697448444251443","0.11134760313077418149","0.05952380952380952","0.92445744533201474222"
"The Paseos At Magnolia Apartments","Riverside","CA","92505","Multifamily","Garden","2013",168,"0.946","2333.93","2859975.21","2925869","56400000","33.89757","-117.48463","1956","96334",14532683,13434847,"California","0.05187710992907801418","23","2339.5527564235294118","-0.00240334671149921433","0.29072975273527518841","0.5714285714285714","0.92445744533201474222"
"Vercanta Newport Beach","Newport Beach","CA","92660","Multifamily","Garden","1969",147,"0.966","2488.47","2686998.98","3098369.78","60200000","33.6607","-117.88481","1956","96334",14532683,13434847,"California","0.05146793654485049834","24","2339.5527564235294118","0.06365201347462672407","0.30998027695310067058","0.6071428571428571","0.92445744533201474222"
"Trails At 2112","Modesto","CA","95355","Multifamily","Garden","1985",97,"0.959","1934","1572143.59","1481454.04","28900000","37.67798","-120.95953","1956","96334",14532683,13434847,"California","0.05126138546712802768","25","2339.5527564235294118","-0.17334627539816510372","0.24091182759980899786","0.36904761904761907","0.92445744533201474222"
"Concord Villas","Riverside","CA","92503","Multifamily","Garden","1988",54,"1","2103","918401.16","911787.6","17800000","33.9151","-117.45323","1956","96334",14532683,13434847,"California","0.05122402247191011236","26","2339.5527564235294118","-0.10111024672303061692","0.26196358502709323811","0.47619047619047616","0.92445744533201474222"
"Cielo Vista Apartments","Rialto","CA","92335","Multifamily","Garden","2008",120,"0.975","1733.38","1698453.02","1669529.41","32700000","34.09959","-117.40339","1956","96334",14532683,13434847,"California","0.05105594525993883792","27","2339.5527564235294118","-0.25909770778162948680","0.21592127390121867669","0.2619047619047619","0.92445744533201474222"
"Mission Palms I","Riverside","CA","92509","Multifamily","Age Restricted","2004",109,"0.972","982.07","389398.39","397781.15","7800000","34.00056","-117.41372","1956","96334",14532683,13434847,"California","0.05099758333333333333","28","2339.5527564235294118","-0.58023173561544777839","0.12233313264268067349","0.08333333333333333","0.92445744533201474222"
"Angels City Lights","Los Angeles","CA","91401","Multifamily","Garden","2001",49,"0.9592","1800","708226.97","743654.93","14600000","34.17949","-118.43591","1956","96334",14532683,13434847,"California","0.05093526917808219178","29","2339.5527564235294118","-0.23062217979146700449","0.22421990159237652335","0.2857142857142857","0.92445744533201474222"
"Park Regency Club Apartments","Downey","CA","90242","Multifamily","Garden","1971",460,"0.93","2130","7726367.43","7573090","149500000","33.91693","-118.11435","1956","96334",14532683,13434847,"California","0.05065612040133779264","30","2339.5527564235294118","-0.08956957941990262198","0.26532688355097888596","0.4880952380952381","0.92445744533201474222"
"College Park Apartments","Upland","CA","91786","Multifamily","Garden","2009",448,"0.953","2606","9874558.55","9849514","194700000","34.09685","-117.70063","1956","96334",14532683,13434847,"California","0.05058815613764766307","31","2339.5527564235294118","0.11388811081302054794","0.32462059086096289991","0.6904761904761905","0.92445744533201474222"
"Valle Verde","Orange Cove","CA","93646","Multifamily","Garden","2004",73,"0.945","903.99","182176.47","188570.14","3770000","36.62223","-119.30699","1956","96334",14532683,13434847,"California","0.05001860477453580902","32","2339.5527564235294118","-0.61360563572760458744","0.11260697157805136297","0.07142857142857142","0.92445744533201474222"
"Rosina Vista","Chula Vista","CA","91913","Multifamily","Garden","2012",278,"0.971","2755.31","6161709.7","6615482","134540000","32.61872","-116.98597","1956","96334",14532683,13434847,"California","0.04917111639661067341","33","2339.5527564235294118","0.17770800099931835992","0.34321963169805053252","0.7738095238095238","0.92445744533201474222"
"Mission City Lights","Los Angeles","CA","91343","Multifamily","Mid Rise","2001",46,"0.978","1682","573820.12","598786","12210000",NULL,NULL,"1956","96334",14532683,13434847,"California","0.04904062244062244062","34","2339.5527564235294118","-0.28105917022735972309","0.20952104137687628459","0.23809523809523808","0.92445744533201474222"
"Oceanview Terrace","San Diego","CA","92154","Multifamily","Garden","2013",202,"0.96","3118.33","5059281.6","5267666.29","107700000","32.58941","-117.03149","1956","96334",14532683,13434847,"California","0.04891055051067780873","35","2339.5527564235294118","0.33287441005048594216","0.38843980318475304669","0.8452380952380952","0.92445744533201474222"
"Courtland City Lights","Los Angeles","CA","90026","Multifamily","Mid Rise","2000",92,"1","1527","1059431.23","1075241.29","22000000","34.06451","-118.25748","1956","96334",14532683,13434847,"California","0.04887460409090909091","36","2339.5527564235294118","-0.34731114918976117548","0.19021321651753275064","0.17857142857142858","0.92445744533201474222"
"C Plus C Flats","Chula Vista","CA","91910","Multifamily","Garden","2021",43,"1","2422","753236.24","932381.61","19100000","32.64026","-117.07948","1956","96334",14532683,13434847,"California","0.04881579109947643979","37","2339.5527564235294118","0.03524060030281495284","0.30170033425374218864","0.5952380952380952","0.92445744533201474222"
"Golden West MHC","Kerman","CA","93630","Multifamily","Manufactured Housing Community","1973",109,"0.982","633.86","535547.04","539857.63","11400000","36.73235","-120.06003","1956","96334",14532683,13434847,"California","0.04735593245614035088","38","2339.5527564235294118","-0.72906787493478848637","0.07895779267963543505","0.023809523809523808","0.92445744533201474222"
"Vive On The Park","San Diego","CA","92123","Multifamily","Mid Rise","2017",550,"0.951","3121.06","14032031.58","13393071.22","283000000","32.82703","-117.13952","1956","96334",14532683,13434847,"California","0.04732534000000000000","39","2339.5527564235294118","0.33404129974446888386","0.38877987003550148442","0.8571428571428571","0.92445744533201474222"
"Vercanta Pleasanton","Pleasanton","CA","94566","Multifamily","Garden","1989",150,"0.973","2683","3068442","2852138.19","60300000","37.67652","-121.87635","1956","96334",14532683,13434847,"California","0.04729914079601990050","40","2339.5527564235294118","0.14680038423305223719","0.33421221998463678452","0.75","0.92445744533201474222"
"University Gateway","Los Angeles","CA","90007","Multifamily","Student","2010",1656,"0.958","1198","15227388.48","14090134","298000000","34.02231","-118.27985","1956","96334",14532683,13434847,"California","0.04728232885906040268","41","2339.5527564235294118","-0.48793631743898748410","0.14923080117092615276","0.13095238095238096","0.92445744533201474222"
"Lido Apartment Homes","San Bernardino","CA","92407","Multifamily","Garden","1988",336,"0.92","1641.22","3415090.67","3672378.66","77700000","34.16747","-117.31215","1956","96334",14532683,13434847,"California","0.04726356061776061776","42","2339.5527564235294118","-0.29848985217630637617","0.20444121493968899869","0.21428571428571427","0.92445744533201474222"
"The Villages Of Monterey","Oceanside","CA","92056","Multifamily","Garden","1989",424,"0.953","2272.51","7629402.66","8001054.18","170250000","33.21489","-117.31567","1956","96334",14532683,13434847,"California","0.04699591295154185022","43","2339.5527564235294118","-0.02865622766550371243","0.28307887142649531837","0.5357142857142857","0.92445744533201474222"
"The Parc Apartment Homes","Vacaville","CA","95687","Multifamily","Garden","1986",176,"0.938","2061.76","2882597.99","2974263.39","63620000","38.35192","-121.95479","1956","96334",14532683,13434847,"California","0.04675044624331971078","44","2339.5527564235294118","-0.11873754744825278399","0.25682645794838790043","0.4523809523809524","0.92445744533201474222"
"Greenfield Village","San Diego","CA","92154","Multifamily","Garden","2007",644,"0.957","2615.18","12269347.51","12660243","271100000","32.57034","-117.0123","1956","96334",14532683,13434847,"California","0.04669953153817779417","45","2339.5527564235294118","0.11781193769608406622","0.32576411235908402018","0.7023809523809523","0.92445744533201474222"
"Park La Brea Apartments","Los Angeles","CA","90036","Multifamily","High Rise","1941",4249,"0.959284538","2534.84","80420149.28","85366589.1","1843000000","34.07092","-118.35774","1956","96334",14532683,13434847,"California","0.04631936467715680955","46","2339.5527564235294118","0.08347204098744321018","0.31575643075134428135","0.6309523809523809","0.92445744533201474222"
"Park Pointe","El Cajon","CA","92019","Multifamily","Garden","1984",676,"0.959","2509.3","13073476.68","12481216","270300000","32.7457","-116.92574","1956","96334",14532683,13434847,"California","0.04617541990381058084","47","2339.5527564235294118","0.07255542458292880313","0.31257499948097245002","0.6190476190476191","0.92445744533201474222"
"Atrium Court","Sacramento","CA","95834","Multifamily","Garden","2004",224,"0.982","1256","2231049.35","2095043.45","45590000","38.63856","-121.52635","1956","96334",14532683,13434847,"California","0.04595401294143452512","48","2339.5527564235294118","-0.46314525434337919869","0.15645566466668050740","0.15476190476190477","0.92445744533201474222"
"Pioneer 2000 Apartments","Santa Rosa","CA","95403","Multifamily","Garden","1986",178,"0.944","2020.59","2598141.88","2686233.42","58580000","38.46865","-122.75948","1956","96334",14532683,13434847,"California","0.04585581119836121543","49","2339.5527564235294118","-0.13633492792491128589","0.25169805053252226628","0.42857142857142855","0.92445744533201474222"
"Cero Townhomes","San Bernardino","CA","92411","Multifamily","Townhome","1987",80,"0.975","2550.8","1591267.53","1294571.61","28300000","34.13157","-117.33018","1956","96334",14532683,13434847,"California","0.04574457985865724382","50","2339.5527564235294118","0.09029385765995886941","0.31774451387879668653","0.6428571428571429","0.92445744533201474222"
"NC Raymondale a/k/a Terraces At South Pasadena","South Pasadena","CA","91030","Multifamily","Garden","1959",53,"1","2087.17","859679.28","899643.31","19850000","34.12095","-118.14807","1956","96334",14532683,13434847,"California","0.04532208110831234257","51","2339.5527564235294118","-0.10787649721964232654","0.25999169555920028235","0.4642857142857143","0.92445744533201474222"
"Huntington Hacienda I","Los Angeles","CA","90032","Multifamily","Garden","1989",57,"0.965","1842","791607.53","793482","17550000","34.08538","-118.1843","1956","96334",14532683,13434847,"California","0.04521264957264957265","52","2339.5527564235294118","-0.21267003065326790126","0.22945169929619864222","0.32142857142857145","0.92445744533201474222"
"Refugio Townhomes","Santa Maria","CA","93455","Multifamily","Townhome","2018",125,"0.936","3007","3007563.67","2953663","65400000",NULL,NULL,"1956","96334",14532683,13434847,"California","0.04516304281345565749","53","2339.5527564235294118","0.28528839187058817638","0.37457180227126455872","0.8333333333333334","0.92445744533201474222"
"Fountains At Point West","Sacramento","CA","95815","Multifamily","Garden","1974",339,"0.914","1863.49","4747696.14","4551529","101120000","38.59785","-121.43181","1956","96334",14532683,13434847,"California","0.04501116495253164557","54","2339.5527564235294118","-0.20348451434422269345","0.23212863578798762638","0.35714285714285715","0.92445744533201474222"
"El Norte Villas","Escondido","CA","92026","Multifamily","Garden","1986",236,"0.953","2197","3840794.42","3973256","88400000","33.14691","-117.10602","1956","96334",14532683,13434847,"California","0.04494633484162895928","55","2339.5527564235294118","-0.06093162722325167160","0.27367284655469512322","0.5238095238095238","0.92445744533201474222"
"Edison Long Beach","Long Beach","CA","90802","Multifamily","High Rise","1960",156,"0.968","2560","2721813.58","2623453.48","58720000","33.76911","-118.18927","1956","96334",14532683,13434847,"California","0.04467734128065395095","56","2339.5527564235294118","0.09422623318546914917","0.31889052670915772209","0.6547619047619048","0.92445744533201474222"
"The James Apartments","San Jose","CA","95113","Multifamily","Mid Rise","2020",190,"0.926","2928","4013743.06","3417099","76850000","37.33771","-121.89158","1956","96334",14532683,13434847,"California","0.04446452830188679245","57","2339.5527564235294118","0.25152125420588033936","0.36473103992359914464","0.8095238095238095","0.92445744533201474222"
"The Lenox Apartments","Rohnert Park","CA","94928","Multifamily","Garden","1978",202,"0.941","1858.53","2523995.49","2797851.22","63330000","38.34211","-122.70811","1956","96334",14532683,13434847,"California","0.04417892341702194852","58","2339.5527564235294118","-0.20560457767101953992","0.23151078539248863330","0.3333333333333333","0.92445744533201474222"
"Raintree Apartments","San Jose","CA","95128","Multifamily","Garden","1978",176,"0.983","1621","2959496.02","2883917.46","65320000","37.3075","-121.94991","1956","96334",14532683,13434847,"California","0.04415060410287813840","59","2339.5527564235294118","-0.30713252968998223016","0.20192247804513463575","0.20238095238095238","0.92445744533201474222"
"Las Brisas MHC","Long Beach","CA","90805","Multifamily","Manufactured Housing Community","1945",96,"0.99","1118","951255.07","955369.33","21820000","33.84408","-118.18792","1956","96334",14532683,13434847,"California","0.04378411228230980752","60","2339.5527564235294118","-0.52213088722603339501","0.13926547221126497394","0.11904761904761904","0.92445744533201474222"
"Ariva","San Diego","CA","92123","Multifamily","Garden","2014",253,"0.953","2844","5703616.39","5416157.16","124000000","32.82839","-117.13949","1956","96334",14532683,13434847,"California","0.04367868677419354839","61","2339.5527564235294118","0.21561695592948213290","0.35426744451595490689","0.7857142857142857","0.92445744533201474222"
"Meadow Vista Apartments","Red Bluff","CA","96080","Multifamily","Garden","2001",72,"0.972","869.69","271690.58","219206.98","5060000",NULL,NULL,"1956","96334",14532683,13434847,"California","0.04332153754940711462","62","2339.5527564235294118","-0.62826655752380052174","0.10833433678659663255","0.047619047619047616","0.92445744533201474222"
"Columbia Sky MHP","Columbia","CA","95310","Multifamily","MHC Age Restricted","1970",145,"0.917","572","505795.21","463005.38","10700000","38.03715","-120.40517","1956","96334",14532683,13434847,"California","0.04327153084112149533","63","2339.5527564235294118","-0.75550882602262173698","0.07125210206157742853","0.011904761904761904","0.92445744533201474222"
"Beach House Apartments","Sausalito","CA","94965","Multifamily","Garden","1956",17,"1","2673","336210.71","354979.38","8240000","37.85918","-122.48622","1956","96334",14532683,13434847,"California","0.04308002184466019417","64","2339.5527564235294118","0.14252606300967149833","0.33296655386467913717","0.7261904761904762","0.92445744533201474222"
"Shadow Mountain Apartments","La Verne","CA","91750","Multifamily","Garden","1971",96,"0.958","1816.53","1357154.24","1344116","31490000","34.10274","-117.78402","1956","96334",14532683,13434847,"California","0.04268389965068275643","65","2339.5527564235294118","-0.22355672680921864315","0.22627898768866651442","0.30952380952380953","0.92445744533201474222"
"Paramount Terrace","Paramount","CA","90723","Multifamily","Garden","1988",48,"0.938","2141.73","711294.72","723994","17010000","33.90829","-118.16023","1956","96334",14532683,13434847,"California","0.04256284538506760729","66","2339.5527564235294118","-0.08455580062487701530","0.26678804990968920630","0.5","0.92445744533201474222"
"Element 79","El Dorado Hills","CA","95762","Multifamily","Garden","2021",214,"0.967","2666.18","4341818.39","3941058.48","93910000","38.64937","-121.06998","1956","96334",14532683,13434847,"California","0.04196633457565754446","67","2339.5527564235294118","0.13961097593532583442","0.33211700957086802167","0.7142857142857143","0.92445744533201474222"
"Ventura Beach Resort Luxury Apartments","Ventura","CA","93004","Multifamily","Garden","1971",309,"0.971","2000","4637815.81","4708225.12","112710000","34.27093","-119.16931","1956","96334",14532683,13434847,"California","0.04177291384970277704","68","2339.5527564235294118","-0.14513575532385222721","0.24913322399152947038","0.40476190476190477","0.92445744533201474222"
"Baldwin Villa Plaza","Los Angeles","CA","90008","Multifamily","Age Restricted","1983",201,"1","1792","2431704.23","2477827.79","60750000",NULL,NULL,"1956","96334",14532683,13434847,"California","0.04078728872427983539","69","2339.5527564235294118","-0.23404163677017159558","0.22322336869641040546","0.27380952380952384","0.92445744533201474222"
"Vineyards At Paseo Del Sol","Temecula","CA","92592","Multifamily","Garden","2014",288,"0.955","2588.97","5722459.99","5415690.67","134000000","33.48371","-117.09798","1956","96334",14532683,13434847,"California","0.04041560201492537313","70","2339.5527564235294118","0.10660894176960314965","0.32249922145867502647","0.6666666666666666","0.92445744533201474222"
"Palmetto Apartments","Mountain View","CA","94040","Multifamily","Garden","1964",88,"0.909","2945.34","1802518.15","1801661.28","46040000","37.39949","-122.1011","1956","96334",14532683,13434847,"California","0.03913252128583840139","71","2339.5527564235294118","0.25893292720722254055","0.36689102497560570515","0.8214285714285714","0.92445744533201474222"
"Cottonwood Place IV","Moreno Valley","CA","92553","Multifamily","Garden","2007",46,"0.978","986.65","237466.11","241254.74","6200000","33.92446","-117.24225","1956","96334",14532683,13434847,"California","0.03891205483870967742","72","2339.5527564235294118","-0.57827409649513939999","0.12290364772562127598","0.09523809523809523","0.92445744533201474222"
"The Residences At Escaya","Chula Vista","CA","91913","Multifamily","Garden","2019",272,"0.956","2719.78","5310590.68","4822439.09","126000000","32.61434","-116.98593","1956","96334",14532683,13434847,"California","0.03827332611111111111","73","2339.5527564235294118","0.16252133769264659473","0.33879377997384101148","0.7619047619047619","0.92445744533201474222"
"Axis 2300","Irvine","CA","92612","Multifamily","Garden","2010",115,"0.965","3236","2597987.23","2369739","62100000","33.67378","-117.85824","1956","96334",14532683,13434847,"California","0.03816004830917874396","74","2339.5527564235294118","0.38317034788600709637","0.40309755641829468308","0.8690476190476191","0.92445744533201474222"
"Turner Apartments","Los Angeles","CA","90044","Multifamily","Garden","1956",32,"1","2017","438421.33","361698.37","9500000","33.97607","-118.28696","1956","96334",14532683,13434847,"California","0.03807351263157894737","75","2339.5527564235294118","-0.13786940924410497115","0.25125085639545747088","0.4166666666666667","0.92445744533201474222"
"The Boulevard Apartments","Tarzana","CA","91356","Multifamily","Garden","1963",49,"0.918","2373.65","717922.11","714606.07","19100000","34.17769","-118.53612","1956","96334",14532683,13434847,"California","0.03741393036649214660","76","2339.5527564235294118","0.01457425718776908044","0.29567753856374696369","0.5833333333333334","0.92445744533201474222"
"Hillview Glen Apartments","San Jose","CA","95136","Multifamily","Garden","1994",138,"1","1601.04","1255999.79","1198356","32200000","37.27511","-121.8702","1956","96334",14532683,13434847,"California","0.03721602484472049689","77","2339.5527564235294118","-0.31566407485185018493","0.19943612846969917163","0.19047619047619047","0.92445744533201474222"
"Turing Apartments","Milpitas","CA","95035","Multifamily","Mid Rise","2019",371,"0.933","3304","9144020.59","8256718.25","242200000","37.41206","-121.89935","1956","96334",14532683,13434847,"California","0.03409049649050371594","78","2339.5527564235294118","0.41223573220499612064","0.41156808603400668507","0.8809523809523809","0.92445744533201474222"
"Covina Hills MHC","La Puente","CA","91744","Multifamily","Manufactured Housing Community","1972",500,"0.978","1314","4103581.38","4128929.29","136000000","34.02156","-117.9178","1956","96334",14532683,13434847,"California","0.03035977419117647059","79","2339.5527564235294118","-0.43835419124777091328","0.16368052816243486204","0.16666666666666666","0.92445744533201474222"
"923 Folsom","San Francisco","CA","94107","Multifamily","Mid Rise","2017",115,"0.878","3443","1957205","2078347.43","69100000","37.77975","-122.40388","1956","96334",14532683,13434847,"California","0.03007738683068017366","80","2339.5527564235294118","0.47164879720998839085","0.42888284510141798327","0.8928571428571429","0.92445744533201474222"
"Cottonwood Place III","Moreno Valley","CA","92553","Multifamily","Garden","2006",58,"0.983","1061.5","220234.41","211760.38","7700000","33.92446","-117.24225","1956","96334",14532683,13434847,"California","0.02750134805194805195","81","2339.5527564235294118","-0.54628080213813456959","0.13222745863350426641","0.10714285714285714","0.92445744533201474222"
"Redwood Place I","Sunnyvale","CA","94085","Multifamily","Mid Rise","2022",180,"0.944","3606.08","5314477.56","3119777.1","119500000","37.38193","-122.0092","1956","96334",14532683,13434847,"California","0.02610692133891213389","82","2339.5527564235294118","0.54135442772088148024","0.44919716818568729628","0.9047619047619048","0.92445744533201474222"
"Latte","Escondido","CA","92025","Multifamily","Garden","1973",49,"1","2924.44898","1238991.42","556644","23330000","33.10875","-117.06919","1956","96334",14532683,13434847,"California","0.02385957993999142735","83","2339.5527564235294118","0.25000343419081539223","0.36428870139306994415","0.7976190476190477","0.92445744533201474222"
"Leisureville Mobile Home Park","Woodland","CA","95776","Multifamily","MHC Age Restricted Co-Op","1970",150,"1","482.56","536834.34","245007.11","19500000","38.66292","-121.75918","1956","96334",14532683,13434847,"California","0.01256446717948717949","84","2339.5527564235294118","-0.79373835504453906538","0.06011086428467623061","0","0.92445744533201474222"
"Outlook At Mission Valley","San Diego","CA","92123","Multifamily","Age Restricted","1978",56,"0.929","1211","330018.62","81276.28","15000000","32.78453","-117.14988","1956","96334",14532683,13434847,"California","0.00541841866666666667","85","2339.5527564235294118","-0.48237969984859252358","0.15085016712687109432","0.14285714285714285","0.92445744533201474222"
"Arium Lakeside","North Lauderdale","FL","33068","Multifamily","Garden","1988",168,"0.952","2143.84","2805754.01","2833363","47600000","26.21243","-80.22853","1564","71711",10082356,8550911,"Florida","0.05952443277310924370","1","1660.4828724448598131","0.29109431694616361178","0.35874663580203873883","0.8679245283018868","0.84810643464682262757"
"The Grove At Millenia","Orlando","FL","32811","Multifamily","Garden","1988",148,"0.932","1447.15","1616580.29","1615147.4","27900000","28.49024","-81.4391","1564","71711",10082356,8550911,"Florida","0.05789058781362007168","2","1660.4828724448598131","-0.12847640646287005057","0.24216368479033899960","0.32075471698113206","0.84810643464682262757"
"Hunters Pointe","Pensacola","FL","32506","Multifamily","Garden","1986",204,"0.971","1407","1885632.25","1931258.61","34150000",NULL,NULL,"1564","71711",10082356,8550911,"Florida","0.05655222869692532943","3","1660.4828724448598131","-0.15265611988616118657","0.23544505027122756620","0.29245283018867924","0.84810643464682262757"
"Reserve At Waters","Jacksonville","FL","32211","Multifamily","Garden","1970",205,"0.893","1103","1174559.59","1112343.43","19690000","30.32708","-81.59695","1564","71711",10082356,8550911,"Florida","0.05649281005586592179","4","1660.4828724448598131","-0.33573539462291100838","0.18457419363835394849","0.1509433962264151","0.84810643464682262757"
"Sterling Hills Apartments","Pensacola","FL","32504","Multifamily","Garden","1970",194,"0.979","1235.21","1749362.98","1852287.14","33500000","30.48542","-87.22277","1564","71711",10082356,8550911,"Florida","0.05529215343283582090","5","1660.4828724448598131","-0.25611397714611596252","0.20669799612332835967","0.19811320754716982","0.84810643464682262757"
"Treebecka Park","Gainesville","FL","32607","Multifamily","Townhome","1976",144,"0.958","1091.35","1038543.43","983408.45","17800000","29.64021","-82.41118","1564","71711",10082356,8550911,"Florida","0.05524766573033707865","6","1660.4828724448598131","-0.34275142603963184859","0.18262470192857441676","0.1320754716981132","0.84810643464682262757"
"Arium Hampton Lakes","North Lauderdale","FL","33068","Multifamily","Garden","1986",668,"0.94","1935.53","9872005.27","9561742.89","173900000","26.20946","-80.22889","1564","71711",10082356,8550911,"Florida","0.05498414542840713053","7","1660.4828724448598131","0.16564285733954402171","0.32388838532442721479","0.7452830188679245","0.84810643464682262757"
"Wingwood","Orlando","FL","32822","Multifamily","Garden","1980",87,"0.9655","1132.48","655105.62","606282.17","11400000","28.49021","-81.30944","1564","71711",10082356,8550911,"Florida","0.05318264649122807018","8","1660.4828724448598131","-0.31798152284909724277","0.18950732802498919273","0.16981132075471697","0.84810643464682262757"
"Golf Villas Apartments","Tamarac","FL","33319","Multifamily","Garden","1986",166,"0.958","1864.1","2489530.19","2590302","48800000","26.19868","-80.21331","1564","71711",10082356,8550911,"Florida","0.05307995901639344262","9","1660.4828724448598131","0.12262525012097152246","0.31193540739914378547","0.6886792452830188","0.84810643464682262757"
"Branchwood","Winter Park","FL","32792","Multifamily","Garden","1981",117,"0.9316","1131.5","943549.88","912301.91","17200000","28.61646","-81.2816","1564","71711",10082356,8550911,"Florida","0.05304080872093023256","10","1660.4828724448598131","-0.31857171261634071259","0.18934333644768585015","0.16037735849056603","0.84810643464682262757"
"Colonial Gardens","Orlando","FL","32808","Multifamily","Garden","1973",220,"0.986","781.25","958231.84","921981.84","17400000","28.55269","-81.446","1564","71711",10082356,8550911,"Florida","0.05298746206896551724","11","1660.4828724448598131","-0.52950433096024408459","0.13073308139615958500","0.018867924528301886","0.84810643464682262757"
"The Grove","Tampa","FL","33613","Multifamily","Garden","1983",200,"0.96","1405","2287574.48","2207504.51","41900000","28.07422","-82.45784","1564","71711",10082356,8550911,"Florida","0.05268507183770883055","12","1660.4828724448598131","-0.15386058879890296172","0.23511037358285339767","0.2830188679245283","0.84810643464682262757"
"Kings Crossing","Jacksonville","FL","32217","Multifamily","Garden","1984",133,"0.9474","877.17","638929.36","700212.8","13300000","30.24709","-81.61839","1564","71711",10082356,8550911,"Florida","0.05264757894736842105","13","1660.4828724448598131","-0.47173800190514854870","0.14678417537058470806","0.03773584905660377","0.84810643464682262757"
"Coconut Palm Club Apartments","Coconut Creek","FL","33073","Multifamily","Garden","1992",301,"0.93","2354.98","5257500.89","5141665.73","97700000","26.29712","-80.20138","1564","71711",10082356,8550911,"Florida","0.05262708014329580348","14","1660.4828724448598131","0.41825010006431281367","0.39407845379369971134","0.9150943396226415","0.84810643464682262757"
"The Loop At Wedgewood","Lakeland","FL","33809","Multifamily","Garden","1984",240,"0.988","1395.54","2653674.86","2627497.83","50000000","28.09217","-81.96785","1564","71711",10082356,8550911,"Florida","0.05254995660000000000","15","1660.4828724448598131","-0.15955772675617155815","0.23352735284684358048","0.2641509433962264","0.84810643464682262757"
"Centre Lake","Miami","FL","33169","Multifamily","Garden","1986",234,"0.902","1360.72","2040580.57","2021292.26","38500000","25.91969","-80.21261","1564","71711",10082356,8550911,"Florida","0.05250109766233766234","16","1660.4828724448598131","-0.18052753052700586339","0.22770063170224930624","0.25471698113207547","0.84810643464682262757"
"Heather Glenn","Fort Walton Beach","FL","32547","Multifamily","Garden","2004",168,"0.988","1100.78","1381596.65","1374465.18","26200000","30.43147","-86.66861","1564","71711",10082356,8550911,"Florida","0.05246050305343511450","17","1660.4828724448598131","-0.33707235511605437879","0.18420270251425862141","0.14150943396226415","0.84810643464682262757"
"Elliot Cocoplum","Coconut Creek","FL","33063","Multifamily","Garden","1986",360,"0.928","2131.26","5664335.23","5433510.6","103600000","26.27198","-80.18704","1564","71711",10082356,8550911,"Florida","0.05244701351351351351","18","1660.4828724448598131","0.28351820748501784613","0.35664151943216521873","0.8584905660377359","0.84810643464682262757"
"Wyndham West Villas","Coral Springs","FL","33076","Multifamily","Garden","1998",332,"0.955","2712","6652422.32","6451780","123200000","26.29923","-80.2812","1564","71711",10082356,8550911,"Florida","0.05236834415584415584","19","1660.4828724448598131","0.63325984567784709453","0.45382158943537253699","0.9905660377358491","0.84810643464682262757"
"The Addison Skyway Marina","Saint Petersburg","FL","33711","Multifamily","Garden","2021",308,"0.9253","2202.318182","4783268.17","5359793.12","102400000","27.73131","-82.68058","1564","71711",10082356,8550911,"Florida","0.05234172968750000000","20","1660.4828724448598131","0.32631189309249143470","0.36853227794898969475","0.8867924528301887","0.84810643464682262757"
"Applewood","DeLand","FL","32724","Multifamily","Garden","1981",161,"0.9689","1024.25","1053422.48","1034229.01","20000000","29.00637","-81.30154","1564","71711",10082356,8550911,"Florida","0.05171145050000000000","21","1660.4828724448598131","-0.38316135806211840465","0.17139629903362106232","0.09433962264150944","0.84810643464682262757"
"Parc At Wesley Chapel","Wesley Chapel","FL","33544","Multifamily","Garden","2020",248,"0.976","1965.56","3772940.33","3937228","76500000","28.22484","-82.36904","1564","71711",10082356,8550911,"Florida","0.05146703267973856209","22","1660.4828724448598131","0.18372795806436177549","0.32891355580036535538","0.7641509433962265","0.84810643464682262757"
"Runaway Bay","Pinellas Park","FL","33782","Multifamily","Garden","1984",192,"0.911","1640","2278020.02","2278334","44400000","27.85078","-82.69707","1564","71711",10082356,8550911,"Florida","0.05131382882882882883","23","1660.4828724448598131","-0.01233549155174438236","0.27443488446681820083","0.5188679245283019","0.84810643464682262757"
"Venue At Lakewood Ranch","Bradenton","FL","34202","Multifamily","Garden","2014",237,"0.92","2050.61","4012554.83","3845127","75000000","27.4111","-82.44606","1564","71711",10082356,8550911,"Florida","0.05126836000000000000","24","1660.4828724448598131","0.23494799857870576347","0.34314568197347687245","0.8301886792452831","0.84810643464682262757"
"Crosstown Walk","Tampa","FL","33619","Multifamily","Garden","2014",342,"0.901","1764.97","4304486.25","4382084.66","86250000","27.94192","-82.34221","1564","71711",10082356,8550911,"Florida","0.05080677866666666667","25","1660.4828724448598131","0.06292574846092543748","0.29534715733987812191","0.6320754716981132","0.84810643464682262757"
"Amberly Place","Tampa","FL","33647","Multifamily","Garden","1988",770,"0.931","1624.49","9301372.43","8992791.61","178400000","28.08374","-82.40061","1564","71711",10082356,8550911,"Florida","0.05040802471973094170","26","1660.4828724448598131","-0.02167614797005684860","0.27183946674847652382","0.5","0.84810643464682262757"
"Sabal Palm At Carrollwood","Tampa","FL","33624","Multifamily","Garden","1995",432,"0.914","1686.8","5936812.52","5862552.57","117100000","28.10761","-82.50409","1564","71711",10082356,8550911,"Florida","0.05006449675491033305","27","1660.4828724448598131","0.01584908100641315600","0.28226631897477374461","0.5471698113207547","0.84810643464682262757"
"Yugo Tallahassee Catalyst","Tallahassee","FL","32304","Multifamily","Student","2013",402,"0.983","920.98","2634382.52","2753084.6","55000000","30.4365","-84.29194","1564","71711",10082356,8550911,"Florida","0.05005608363636363636","28","1660.4828724448598131","-0.44535411037153996419","0.15411526822942086988","0.05660377358490566","0.84810643464682262757"
"Uptown At Liberty Park","Cape Coral","FL","33909","Multifamily","Garden","2018",320,"0.95","2098.31","5288514.66","5045274.3","101000000","26.70787","-81.94402","1564","71711",10082356,8550911,"Florida","0.04995321089108910891","29","1660.4828724448598131","0.26367458214759710064","0.35112772099120079207","0.839622641509434","0.84810643464682262757"
"Midtown Cape Coral","Cape Coral","FL","33991","Multifamily","Garden","2017",90,"0.989","1984.27","1354409.6","1310130.8","26300000","26.61036","-82.01211","1564","71711",10082356,8550911,"Florida","0.04981485931558935361","30","1660.4828724448598131","0.19499576474306108196","0.33204445622010570205","0.7830188679245284","0.84810643464682262757"
"Twin Lakes","Palm Harbor","FL","34684","Multifamily","Garden","1986",262,"0.935","1629","3077825.96","3153220","63500000","28.0615","-82.73899","1564","71711",10082356,8550911,"Florida","0.04965700787401574803","31","1660.4828724448598131","-0.01896007057182414565","0.27259416268076027388","0.5094339622641509","0.84810643464682262757"
"Village Walk","Jacksonville","FL","32256","Multifamily","Garden","2003",240,"0.938","1918","3062521.89","3131883","63400000","30.23923","-81.51974","1564","71711",10082356,8550911,"Florida","0.04939878548895899054","32","1660.4828724448598131","0.15508568731936236258","0.32095494415082762756","0.7358490566037735","0.84810643464682262757"
"Vista At Palma Sola","Bradenton","FL","34209","Multifamily","Garden","1991",340,"0.953","1618.85","4044143.91","4117515","83500000","27.46694","-82.63701","1564","71711",10082356,8550911,"Florida","0.04931155688622754491","33","1660.4828724448598131","-0.02507275030398865450","0.27089567848726136855","0.4811320754716981","0.84810643464682262757"
"Parkside At The Beach","Panama City Beach","FL","32413","Multifamily","Garden","2019",288,"0.91","1717.87","4038100.62","4054697","82550000","30.22933","-85.89183","1564","71711",10082356,8550911,"Florida","0.04911807389460932768","34","1660.4828724448598131","0.03456050556585663285","0.28746552132866645285","0.5849056603773585","0.84810643464682262757"
"River Pointe","Tampa","FL","33617","Multifamily","Garden","1973",212,"0.953","1348.95","2210014.4","2081418.1","42400000","28.02057","-82.40228","1564","71711",10082356,8550911,"Florida","0.04909004952830188679","35","1660.4828724448598131","-0.18761583007849121011","0.22573105939116732440","0.2358490566037736","0.84810643464682262757"
"Brookside Manor Apartments","Brandon","FL","33511","Multifamily","Garden","1987",140,"0.993","1227.63","1073573.32","1094570.32","22300000","27.88861","-82.27073","1564","71711",10082356,8550911,"Florida","0.04908387085201793722","36","1660.4828724448598131","-0.26067891432540729032","0.20542957147439026091","0.18867924528301888","0.84810643464682262757"
"Solana Vista","Bradenton","FL","34209","Multifamily","Garden","1984",200,"0.965","1722.37","2618926.96","2464978.39","50300000","27.46558","-82.61978","1564","71711",10082356,8550911,"Florida","0.04900553459244532803","37","1660.4828724448598131","0.03727056061952562692","0.28821854387750833206","0.5943396226415094","0.84810643464682262757"
"Citrus Village","Tampa","FL","33625","Multifamily","Garden","2011",296,"0.949","1758.69","3962237.76","4009942.8","82000000","28.08252","-82.57736","1564","71711",10082356,8550911,"Florida","0.04890174146341463415","38","1660.4828724448598131","0.05914371607491626353","0.29429627253838323270","0.6132075471698113","0.84810643464682262757"
"Oakwood Apartments","Sarasota","FL","34243","Multifamily","Garden","2016",148,"0.959","2150","2254704.84","2247004","46100000","27.42085","-82.54682","1564","71711",10082356,8550911,"Florida","0.04874195227765726681","39","1660.4828724448598131","0.29480408119740827922","0.35977744000223117792","0.8773584905660378","0.84810643464682262757"
"Onyx Winter Park","Casselberry","FL","32707","Multifamily","Garden","1983",336,"0.961","1592","4489224.45","4241659","87400000","28.63014","-81.31767","1564","71711",10082356,8550911,"Florida","0.04853156750572082380","40","1660.4828724448598131","-0.04124274545754698580","0.26640264394583815593","0.46226415094339623","0.84810643464682262757"
"Aster At Lely Resort Apartments","Naples","FL","34113","Multifamily","Garden","2014",308,"0.938","2000.51","4865120.66","4900606","101000000","26.10313","-81.69108","1564","71711",10082356,8550911,"Florida","0.04852085148514851485","41","1660.4828724448598131","0.20477605231452429612","0.33476203092970395058","0.8113207547169812","0.84810643464682262757"
"Promenade At Reflection Lakes","Fort Myers","FL","33907","Multifamily","Garden","2001",360,"0.942","1816.13","5202617.43","5059425","104600000","26.54264","-81.884","1564","71711",10082356,8550911,"Florida","0.04836926386233269598","42","1660.4828724448598131","0.09373606324886004565","0.30390818702848935310","0.660377358490566","0.84810643464682262757"
"Villas At Dames Point Crossing","Jacksonville","FL","32277","Multifamily","Garden","2006",180,"0.989","1449.05","1698388.33","1683431.51","34900000","30.35296","-81.55759","1564","71711",10082356,8550911,"Florida","0.04823585988538681948","43","1660.4828724448598131","-0.12733216099576536418","0.24248162764429445971","0.330188679245283","0.84810643464682262757"
"Emerald Palms","Miami","FL","33186","Multifamily","Garden","1985",505,"0.952","2303","8577138.57","8178975","169800000","25.62821","-80.39176","1564","71711",10082356,8550911,"Florida","0.04816828621908127208","44","1660.4828724448598131","0.38694595302215407770","0.38538020666285507105","0.9056603773584906","0.84810643464682262757"
"Stillwater Palms","Palm Harbor","FL","34683","Multifamily","Garden","1982",425,"0.953","1532","4620022.71","4429404.13","92050000","28.11558","-82.7433","1564","71711",10082356,8550911,"Florida","0.04811954513851167844","45","1660.4828724448598131","-0.07737681283980024011","0.25636234329461309980","0.3867924528301887","0.84810643464682262757"
"Casa Del Mar","West Palm Beach","FL","33415","Multifamily","Garden","1981",386,"0.982","1600.13","4467629.15","4323005.52","90000000","26.65417","-80.12245","1564","71711",10082356,8550911,"Florida","0.04803339466666666667","46","1660.4828724448598131","-0.03634657932725166985","0.26776310468407915104","0.4716981132075472","0.84810643464682262757"
"Angel Landing","Pensacola","FL","32507","Multifamily","Military","2006",108,"0.944","1695","1184590.57","1120685","23400000","30.35419","-87.35306","1564","71711",10082356,8550911,"Florida","0.04789252136752136752","47","1660.4828724448598131","0.02078740354865443408","0.28363849339710783562","0.5566037735849056","0.84810643464682262757"
"Cobblestone At Eagle Harbor","Fleming Island","FL","32003","Multifamily","Garden","1998",272,"0.9375","1714.16","3003618.77","2882360.76","60500000","30.10149","-81.72399","1564","71711",10082356,8550911,"Florida","0.04764232661157024793","48","1660.4828724448598131","0.03232621573272063996","0.28684469607173237021","0.5754716981132075","0.84810643464682262757"
"Shell Harbor Retirement Community","Rockledge","FL","32955","Multifamily","Independent Living","2021",128,"0.9140625","4648.023438","3231590.29","2861553.7","60100000","28.29761","-80.72542","1564","71711",10082356,8550911,"Florida","0.04761320632279534110","49","1660.4828724448598131","1.7991998683830739","0.77779254585767873827","1","0.84810643464682262757"
"Park At Portofino","Brandon","FL","33511","Multifamily","Garden","1989",444,"0.937","1573.2","4836884.63","4667592.68","98400000","27.91156","-82.32207","1564","71711",10082356,8550911,"Florida","0.04743488495934959350","50","1660.4828724448598131","-0.05256475323731967215","0.26325668307512097168","0.4339622641509434","0.84810643464682262757"
"The Atlantic Preserve (fka Verona View)","Plantation","FL","33322","Multifamily","Garden","1989",293,"0.915","2369.75","4736275.15","4064758.89","86200000","26.14441","-80.29285","1564","71711",10082356,8550911,"Florida","0.04715497552204176334","51","1660.4828724448598131","0.42714510298491082311","0.39655004113734294599","0.9245283018867925","0.84810643464682262757"
"Arium Retreat At Orange Park","Orange Park","FL","32073","Multifamily","Garden","1986",288,"0.965","1353.81","2828416.72","2753151.55","58500000","30.18591","-81.71906","1564","71711",10082356,8550911,"Florida","0.04706241965811965812","52","1660.4828724448598131","-0.18468897062052869652","0.22654432374391655395","0.24528301886792453","0.84810643464682262757"
"Palm River","Tampa","FL","33619","Multifamily","Garden","1986",70,"0.929","1575.871429","591686.47","553147.8","11800000","27.94189","-82.37363","1564","71711",10082356,8550911,"Florida","0.04687693220338983051","53","1660.4828724448598131","-0.05095592664577124834","0.26370371558059433002","0.44339622641509435","0.84810643464682262757"
"Mission Club Apartments","Orlando","FL","32821","Multifamily","Garden","1995",356,"0.98","1580.08","4874485.13","4661858.06","99700000","28.3861","-81.47263","1564","71711",10082356,8550911,"Florida","0.04675885717151454363","54","1660.4828724448598131","-0.04842138017748796566","0.26440797088312811145","0.4528301886792453","0.84810643464682262757"
"Century Avenues","Lakeland","FL","33813","Multifamily","Garden","2017",264,"0.955","1622.34","3012717.52","2979496.25","63800000","27.94742","-81.9704","1564","71711",10082356,8550911,"Florida","0.04670056818181818182","55","1660.4828724448598131","-0.02297095205125425688","0.27147968930847429265","0.49056603773584906","0.84810643464682262757"
"Villas At Deer Park","Lutz","FL","33559","Multifamily","Garden","1974",172,"0.936","1547.15","1614972.97","1677241","36000000","28.09031","-82.43067","1564","71711",10082356,8550911,"Florida","0.04659002777777777778","56","1660.4828724448598131","-0.06825296082578129340","0.25889751920904742648","0.41509433962264153","0.84810643464682262757"
"Caribbean Breeze","Tampa","FL","33613","Multifamily","Garden","1988",540,"0.93","1511.76","5159553.66","5466915.44","117700000","28.07238","-82.41508","1564","71711",10082356,8550911,"Florida","0.04644787969413763806","57","1660.4828724448598131","-0.08956603823674700456","0.25297541520826651420","0.37735849056603776","0.84810643464682262757"
"The Village At Science Drive","Orlando","FL","32826","Multifamily","Student","2000",732,"1","946.69","3881167.42","4787309.94","103200000","28.58067","-81.20212","1564","71711",10082356,8550911,"Florida","0.04638866220930232558","58","1660.4828724448598131","-0.42987066249824444472","0.15841753705847080643","0.0660377358490566","0.84810643464682262757"
"Integra Lakes","Casselberry","FL","32707","Multifamily","Garden","2017",203,"0.941","1884.7","2707170.42","2548963.99","55150000","28.67045","-81.33638","1564","71711",10082356,8550911,"Florida","0.04621874868540344515","59","1660.4828724448598131","0.13503127992221180644","0.31538257728939772141","0.7075471698113207","0.84810643464682262757"
"Carmendy Square Townhomes","Lady Lake","FL","32159","Multifamily","Townhome","1999",152,"0.947","1511","1569207.96","1538102.73","33300000","28.91094","-81.92058","1564","71711",10082356,8550911,"Florida","0.04618927117117117117","60","1660.4828724448598131","-0.09002373642358887911","0.25284823806668433016","0.36792452830188677","0.84810643464682262757"
"Sunshine Village","Davie","FL","33325","Multifamily","Manufactured Housing Community","1972",356,"1","973.12","3136955.42","3039480.26","66000000","26.11442","-80.32885","1564","71711",10082356,8550911,"Florida","0.04605273121212121212","61","1660.4828724448598131","-0.41395360581636188620","0.16284028949533544366","0.08490566037735849","0.84810643464682262757"
"Grand Riviera Miramar","Miramar","FL","33025","Multifamily","Garden","2008",371,"0.957","2681.7","6837689.06","6499763.79","141300000","25.98055","-80.30401","1564","71711",10082356,8550911,"Florida","0.04599974373673036093","62","1660.4828724448598131","0.61501214164980920111","0.44875123760650388364","0.9811320754716981","0.84810643464682262757"
"Vista At Lost Lake","Clermont","FL","34711","Multifamily","Garden","2007",468,"0.953","1835","6231577.37","5839386.59","127000000","28.53129","-81.7277","1564","71711",10082356,8550911,"Florida","0.04597942196850393701","63","1660.4828724448598131","0.10510022744057869413","0.30706586158329963325","0.6698113207547169","0.84810643464682262757"
"The Corridor I","Miami","FL","33138","Multifamily","Mid Rise","2014",64,"1","1957","954846.2","813550.8","17700000","25.85358","-80.18262","1564","71711",10082356,8550911,"Florida","0.04596332203389830508","64","1660.4828724448598131","0.17857283111782697788","0.32748113957412391404","0.7547169811320755","0.84810643464682262757"
"Meadowbrook Mobile Home Park","West Palm Beach","FL","33417","Multifamily","Manufactured Housing Community","1971",434,"0.995","841.57","3226085","3097849.82","67600000","26.70036","-80.13608","1564","71711",10082356,8550911,"Florida","0.04582618076923076923","65","1660.4828724448598131","-0.49317754855195214626","0.14082693031752450809","0.02830188679245283","0.84810643464682262757"
"Nova Glen","Daytona Beach","FL","32114","Multifamily","Garden","1984",143,"0.951","962.82","789909.55","734958.49","16100000","29.18663","-81.03083","1564","71711",10082356,8550911,"Florida","0.04564959565217391304","66","1660.4828724448598131","-0.42015662071698202819","0.16111670455020847569","0.07547169811320754","0.84810643464682262757"
"Berkshire Lauderdale By The Sea","Fort Lauderdale","FL","33308","Multifamily","Mid Rise","2015",264,"0.97","2397","4199337.76","4168265.9","91900000","26.20839","-80.10951","1564","71711",10082356,8550911,"Florida","0.04535653862894450490","67","1660.4828724448598131","0.44355599192101750944","0.40111001101644099232","0.9433962264150944","0.84810643464682262757"
"Arium Reserve At Orange Park","Orange Park","FL","32073","Multifamily","Garden","1989",272,"0.96","1404.59","2759147.33","2630959.2","58400000","30.18614","-81.71766","1564","71711",10082356,8550911,"Florida","0.04505067123287671233","68","1660.4828724448598131","-0.15410750492601502562","0.23504176486173669312","0.27358490566037735","0.84810643464682262757"
"Sorrel Apartments","Jacksonville","FL","32225","Multifamily","Garden","2015",290,"0.934","1684","3444040.45","3454667.01","76700000","30.32396","-81.49214","1564","71711",10082356,8550911,"Florida","0.04504129087353324641","69","1660.4828724448598131","0.01416282452857467079","0.28179777161104990866","0.5377358490566038","0.84810643464682262757"
"400 North Apartments","Maitland","FL","32751","Multifamily","Mid Rise","2019",300,"0.953333333","1995.71","4408162.63","4522137.44","100600000","28.62471","-81.36331","1564","71711",10082356,8550911,"Florida","0.04495166441351888668","70","1660.4828724448598131","0.20188532692394403578","0.33395880687760594609","0.8018867924528302","0.84810643464682262757"
"Carrollwood Station","Tampa","FL","33614","Multifamily","Garden","1984",336,"0.967","1492","3733055.73","3515507.04","78300000","28.03375","-82.4965","1564","71711",10082356,8550911,"Florida","0.04489791877394636015","71","1660.4828724448598131","-0.10146619109463574298","0.24966880952712972905","0.3584905660377358","0.84810643464682262757"
"Avenues Of Baldwin Park","Orlando","FL","32807","Multifamily","Garden","1989",480,"0.956","1538.03","6398483.82","5870360","131700000","28.57357","-81.30628","1564","71711",10082356,8550911,"Florida","0.04457372817008352316","72","1660.4828724448598131","-0.07374533906788378805","0.25737139351006121794","0.4056603773584906","0.84810643464682262757"
"Berkshire Winter Park","Winter Park","FL","32789","Multifamily","Garden","2019",310,"0.952","1977","4077568.97","3839898","87100000","28.58578","-81.37449","1564","71711",10082356,8550911,"Florida","0.04408608495981630310","73","1660.4828724448598131","0.19061752024524472931","0.33082790645786559942","0.7735849056603774","0.84810643464682262757"
"Fairways At Feather Sound","Clearwater","FL","33762","Multifamily","Garden","1985",288,"0.969","1785","3942367.52","3618410","82400000","27.89576","-82.66996","1564","71711",10082356,8550911,"Florida","0.04391274271844660194","74","1660.4828724448598131","0.07498850462203431554","0.29869894437394541981","0.6415094339622641","0.84810643464682262757"
"Venetian Apartments","Fort Myers","FL","33916","Multifamily","Garden","2018",436,"0.938","1892.18","6167827.46","5962234.01","136000000","26.60264","-81.83166","1564","71711",10082356,8550911,"Florida","0.04383995595588235294","75","1660.4828724448598131","0.13953599365586604548","0.31663426810391711174","0.7264150943396226","0.84810643464682262757"
"Citi Lakes","Orlando","FL","32821","Multifamily","Garden","2014",346,"0.945","1876.44","4718262.17","4516738.17","103300000","28.38514","-81.4807","1564","71711",10082356,8550911,"Florida","0.04372447405614714424","76","1660.4828724448598131","0.13005682331258827510","0.31400036256641240535","0.6981132075471698","0.84810643464682262757"
"M2 At Millenia Apartments","Orlando","FL","32839","Multifamily","Mid Rise","2019",403,"0.94","1890","4939469.94","4840443.79","112000000","28.48289","-81.4299","1564","71711",10082356,8550911,"Florida","0.04321824812500000000","77","1660.4828724448598131","0.13822312254097751057","0.31626947051358926803","0.7169811320754716","0.84810643464682262757"
"Osprey Links At Hunter's Creek","Orlando","FL","32837","Multifamily","Garden","1995",424,"0.927","1733","5521995.73","4966974.41","115400000","28.36521","-81.41788","1564","71711",10082356,8550911,"Florida","0.04304137270363951473","78","1660.4828724448598131","0.04367231289074816181","0.28999735047621703783","0.6037735849056604","0.84810643464682262757"
"Puritan Place","Tampa","FL","33617","Multifamily","Garden","1974",224,"0.92","1336.54","1686101.94","1381867.85","32200000","28.01969","-82.40356","1564","71711",10082356,8550911,"Florida","0.04291515062111801242","79","1660.4828724448598131","-0.19508955968205392488","0.22365439053980560862","0.22641509433962265","0.84810643464682262757"
"Presidium Town Center","Jacksonville","FL","32256","Multifamily","Garden","2021",370,"0.908","1848.06","5263180.55","4302052.16","101000000","30.22088","-81.55325","1564","71711",10082356,8550911,"Florida","0.04259457584158415842","80","1660.4828724448598131","0.11296540944078248581","0.30925130035838295380","0.6792452830188679","0.84810643464682262757"
"The Linx","Tampa","FL","33613","Multifamily","Garden","1972",236,"0.89","1425.52","2532196.03","2217924.31","52100000","28.07745","-82.4117","1564","71711",10082356,8550911,"Florida","0.04257052418426103647","81","1660.4828724448598131","-0.14150273775417234875","0.23854415640557236686","0.3018867924528302","0.84810643464682262757"
"Cortland Bayside","Clearwater","FL","33764","Multifamily","Garden","2020",360,"0.975","2540","6253668.25","6053504.87","143000000","27.94692","-82.73006","1564","71711",10082356,8550911,"Florida","0.04233220188811188811","82","1660.4828724448598131","0.52967551918205443220","0.42503939423519404275","0.9622641509433962","0.84810643464682262757"
"LIV At Winter Park","Winter Park","FL","32792","Multifamily","Garden","1973",278,"0.953","1549","3120467.87","2772190.47","66000000","28.60735","-81.28462","1564","71711",10082356,8550911,"Florida","0.04200288590909090909","83","1660.4828724448598131","-0.06713882708149515139","0.25920709514579353237","0.42452830188679247","0.84810643464682262757"
"Registry At Windsor Parke","Jacksonville","FL","32224","Multifamily","Garden","1999",260,"0.954","1816","3639561.92","3189809","76200000","30.25733","-81.46553","1564","71711",10082356,8550911,"Florida","0.04186101049868766404","84","1660.4828724448598131","0.09365777276953183026","0.30388643304374503214","0.6509433962264151","0.84810643464682262757"
"M South","Tampa","FL","33611","Multifamily","Garden","2017",288,"0.886","2108.709481","3872672.25","4023004.69","97100000","27.88912","-82.51831","1564","71711",10082356,8550911,"Florida","0.04143156220391349125","85","1660.4828724448598131","0.26993750793417147489","0.35286795292214583537","0.8490566037735849","0.84810643464682262757"
"The Loree","Jacksonville","FL","32256","Multifamily","Garden","2016",300,"0.937","1759","4220619.18","3516459.42","84900000","30.24744","-81.56059","1564","71711",10082356,8550911,"Florida","0.04141883886925795053","86","1660.4828724448598131","0.05933040875639123867","0.29434814742508122882","0.6226415094339622","0.84810643464682262757"
"U Club On Woodward","Tallahassee","FL","32304","Multifamily","Student","2013",944,"0.999","899.45","4436123.07","5157756","124900000","30.44961","-84.29823","1564","71711",10082356,8550911,"Florida","0.04129508406725380304","87","1660.4828724448598131","-0.45832021821720517361","0.15051247367907294557","0.04716981132075472","0.84810643464682262757"
"St. James Crossing","Tampa","FL","33624","Multifamily","Garden","1986",264,"0.886","1454","2562468.8","2246544.07","54500000","28.0602","-82.53784","1564","71711",10082356,8550911,"Florida","0.04122099211009174312","88","1660.4828724448598131","-0.12435110043672947070","0.24330995244802052684","0.33962264150943394","0.84810643464682262757"
"Valencia At Doral","Doral","FL","33178","Multifamily","Garden","1992",274,"0.942","2617","4722349.97","4176350.84","101700000","25.81449","-80.35953","1564","71711",10082356,8550911,"Florida","0.04106539665683382498","89","1660.4828724448598131","0.57604757232261277522","0.43792444673759953145","0.9716981132075472","0.84810643464682262757"
"Westland Park Apartment Homes","Jacksonville","FL","32244","Multifamily","Garden","1988",405,"0.938","1296.63","3435579.58","3399599.01","83100000","30.20419","-81.75432","1564","71711",10082356,8550911,"Florida","0.04090973537906137184","90","1660.4828724448598131","-0.21912473683581604787","0.21697591722329907546","0.20754716981132076","0.84810643464682262757"
"Cascades At The Hammocks","Miami","FL","33196","Multifamily","Garden","1988",264,"0.97","2448","5027927.66","4106891","100500000","25.66723","-80.44286","1564","71711",10082356,8550911,"Florida","0.04086458706467661692","91","1660.4828724448598131","0.47426994919593277560","0.40964426656998229003","0.9528301886792453","0.84810643464682262757"
"Sanctuary At Winterlakes","Port Saint Lucie","FL","34986","Multifamily","Garden","2001",284,"0.996","1057","2586163.04","2394293.32","58800000","27.36475","-80.3817","1564","71711",10082356,8550911,"Florida","0.04071927414965986395","92","1660.4828724448598131","-0.36343817961597183668","0.17687662980574807212","0.10377358490566038","0.84810643464682262757"
"The Retreat At Lakeland Apartments","Lakeland","FL","33809","Multifamily","Garden","1988",464,"0.92","1648","4733748.33","4281730","105200000","28.10859","-81.94759","1564","71711",10082356,8550911,"Florida","0.04070085551330798479","93","1660.4828724448598131","-0.00751761590077728179","0.27577359122031487498","0.5283018867924528","0.84810643464682262757"
"South Pointe","Tampa","FL","33611","Multifamily","Garden","1986",112,"0.911","1695","1222626.7","1015476.96","25200000","27.89266","-82.50201","1564","71711",10082356,8550911,"Florida","0.04029670476190476190","94","1660.4828724448598131","0.02078740354865443408","0.28363849339710783562","0.5566037735849056","0.84810643464682262757"
"Avion At Carrollwood","Tampa","FL","33618","Multifamily","Garden","1981",264,"0.92","1533","2254794.79","2435023.25","60700000","28.05324","-82.50402","1564","71711",10082356,8550911,"Florida","0.04011570428336079077","95","1660.4828724448598131","-0.07677457838342935254","0.25652968163880018407","0.39622641509433965","0.84810643464682262757"
"Cornerstone Apartments","Orlando","FL","32812","Multifamily","Garden","1986",430,"0.909","1443","4272229.26","3875404","97400000","28.51654","-81.32971","1564","71711",10082356,8550911,"Florida","0.03978854209445585216","96","1660.4828724448598131","-0.13097567945680923399","0.24146923066196259988","0.3113207547169811","0.84810643464682262757"
"Brightwood Manor MHC","Apopka","FL","32712","Multifamily","Manufactured Housing Community","1974",232,"0.849","482","574787.05","580731.73","15000000","28.75745","-81.52582","1564","71711",10082356,8550911,"Florida","0.03871544866666666667","97","1660.4828724448598131","-0.70972299202923219043","0.08065708189817461756","0.009433962264150943","0.84810643464682262757"
"Oak Plaza","Miami","FL","33125","Multifamily","High Rise","2012",156,"1","1988.461538","2145069.08","1975622","51100000","25.78754","-80.22052","1564","71711",10082356,8550911,"Florida","0.03866187866927592955","98","1660.4828724448598131","0.19752005335184899931","0.33274586124862294488","0.7924528301886793","0.84810643464682262757"
"Colony Park","West Palm Beach","FL","33411","Multifamily","Garden","2002",130,"0.985","1317.2","1444414.22","1328328","34500000","26.69177","-80.17725","1564","71711",10082356,8550911,"Florida","0.03850226086956521739","99","1660.4828724448598131","-0.20673677406826689052","0.22041806696322739886","0.2169811320754717","0.84810643464682262757"
"Aria Boca Raton","Boca Raton","FL","33432","Multifamily","Mid Rise","1968",73,"0.959","2394.9","1060989.85","862749","22650000","26.3377","-80.08647","1564","71711",10082356,8550911,"Florida","0.03809046357615894040","100","1660.4828724448598131","0.44229129956263864554","0.40075860049364811535","0.9339622641509434","0.84810643464682262757"
"Desoto Village MHC","Arcadia","FL","34266","Multifamily","MHC Age Restricted","1988",134,"0.798507463","461.3432836","323221.74","257410.48","7000000",NULL,NULL,"1564","71711",10082356,8550911,"Florida","0.03677292571428571429","101","1660.4828724448598131","-0.72216317840079378821","0.07720042117945642928","0","0.84810643464682262757"
"Commander Place","Orlando","FL","32822","Multifamily","Garden","1996",216,"0.991","1074.09","1956537.03","1542133.85","42100000","28.48554","-81.30686","1564","71711",10082356,8550911,"Florida","0.03663025771971496437","102","1660.4828724448598131","-0.35314599275659336808","0.17973644210790534228","0.11320754716981132","0.84810643464682262757"
"Grande Court At North Port","North Port","FL","34287","Multifamily","Garden","2005",128,"0.961","1080.55","1102657.22","931845.29","25700000","27.0425","-82.22346","1564","71711",10082356,8550911,"Florida","0.03625857159533073930","103","1660.4828724448598131","-0.34925555816843743437","0.18081744781135390665","0.12264150943396226","0.84810643464682262757"
"Chelsea Commons","Greenacres","FL","33463","Multifamily","Garden","1970",210,"0.986","1469.89","2072366.04","2183023.4","60900000","26.61373","-80.14223","1564","71711",10082356,8550911,"Florida","0.03584603284072249589","104","1660.4828724448598131","-0.11478159492499606719","0.24596895873715329587","0.3490566037735849","0.84810643464682262757"
"Avilla Suncoast","Odessa","FL","33556","Multifamily","Garden","2021",152,"0.921","2302.03","2672901.78","2230907.41","65000000","28.1377","-82.57114","1564","71711",10082356,8550911,"Florida","0.03432165246153846154","105","1660.4828724448598131","0.38636178559947431675","0.38521788846899359931","0.8962264150943396","0.84810643464682262757"
"San Marco Villas I And II","Lake Park","FL","33403","Multifamily","Garden","2003",400,"0.943","1215","3430454.3","2933669.42","90800000","26.7991","-80.08667","1564","71711",10082356,8550911,"Florida","0.03230913458149779736","106","1660.4828724448598131","-0.26828513550937160035","0.20331608818730738659","0.1792452830188679","0.84810643464682262757"
"Apex At South Creek","Orlando","FL","32824","Multifamily","Garden","2021",300,"0.947","2006","4296334.61","2316034","101100000","28.36555","-81.36967","1564","71711",10082356,8550911,"Florida","0.02290834817012858556","107","1660.4828724448598131","0.20808231948000046889","0.33568071843929104322","0.8207547169811321","0.84810643464682262757"
"Ascent At Riverdale","Riverdale","GA","30274","Multifamily","Garden","1972",180,"0.956","1163.27","1342354.08","1543488","21900000","33.58059","-84.40965","1306","74664",4483873,4008013,"Georgia","0.07047890410958904110","1","1435.4418921562500000","-0.18960843601088359617","0.18696078431372549020","0.1746031746031746","0.89387299774101541235"
"South Of Maple Apartments","Carrollton","GA","30117","Multifamily","Garden","1974",208,"0.899","871.01","1093882.12","1065029.87","16650000","33.56728","-85.09044","1306","74664",4483873,4008013,"Georgia","0.06396575795795795796","2","1435.4418921562500000","-0.39321124403607049189","0.13998874959819993571","0.06349206349206349","0.89387299774101541235"
"Cielo At 325","Austell","GA","30168","Multifamily","Garden","1975",120,"0.983","1254.31","1194592.35","1131278.1","18000000","33.77686","-84.56483","1306","74664",4483873,4008013,"Georgia","0.06284878333333333333","3","1435.4418921562500000","-0.12618545769495594618","0.20159273545483767277","0.25396825396825395","0.89387299774101541235"
"Riverdale Clayton","Riverdale","GA","30274","Multifamily","Garden","1969",148,"0.912","1090.49","1219705.6","1083639.08","17600000","33.57296","-84.40395","1306","74664",4483873,4008013,"Georgia","0.06157040227272727273","4","1435.4418921562500000","-0.24031059288515001056","0.17526358084217293475","0.15873015873015872","0.89387299774101541235"
"Gables At Wolf Creek","Macon","GA","31210","Multifamily","Garden","2003",82,"0.987804878","2610.041098","1258156.22","1302256.97","21300000","32.88499","-83.73397","1306","74664",4483873,4008013,"Georgia","0.06113882488262910798","5","1435.4418921562500000","0.81828405055068095860","0.41948587238829958213","1","0.89387299774101541235"
"Cielo At 820 And Cielo At Prince","Athens","GA","30606","Multifamily","Garden","1968",174,"0.989","997","1312534.1","1242679.77","20650000","33.96725","-83.41012","1306","74664",4483873,4008013,"Georgia","0.06017819709443099274","6","1435.4418921562500000","-0.30544036268695225131","0.16023786563805850209","0.1111111111111111","0.89387299774101541235"
"Lake Colony Apartments","Peachtree Corners","GA","30071","Multifamily","Garden","1971",172,"0.977","1481","2195246.73","2045992","34000000","33.93134","-84.26035","1306","74664",4483873,4008013,"Georgia","0.06017623529411764706","7","1435.4418921562500000","0.03173803697153833081","0.23802635808421729347","0.5873015873015873","0.89387299774101541235"
"Sweetwater Vista","Douglasville","GA","30135","Multifamily","Garden","2022",300,"0.893","1724.22","3387329.14","3772684","63100000","33.70169","-84.79179","1306","74664",4483873,4008013,"Georgia","0.05978896988906497623","8","1435.4418921562500000","0.20117714929579056093","0.27711668273866923819","0.8888888888888888","0.89387299774101541235"
"445 Cleveland","Atlanta","GA","30354","Multifamily","Garden","1971",200,"0.905","1284.3","1883684.48","1963668.29","34400000","33.68114","-84.37263","1306","74664",4483873,4008013,"Georgia","0.05708338052325581395","9","1435.4418921562500000","-0.10529293660867881279","0.20641272902603664417","0.30158730158730157","0.89387299774101541235"
"Highland Circle","Atlanta","GA","30342","Multifamily","Garden","1966",133,"0.97","1235.34","1082387.9","1209726.44","21500000","33.90944","-84.38017","1306","74664",4483873,4008013,"Georgia","0.05626634604651162791","10","1435.4418921562500000","-0.13940090034272777746","0.19854387656702025072","0.2222222222222222","0.89387299774101541235"
"Fountains At Chatham Parkway","Savannah","GA","31405","Multifamily","Garden","2007",352,"0.974","1583.82","5305040.02","5161619.17","93700000","32.04977","-81.16611","1306","74664",4483873,4008013,"Georgia","0.05508665069370330843","11","1435.4418921562500000","0.10336754741138544166","0.25455159112825458052","0.746031746031746","0.89387299774101541235"
"Garden Walk","Atlanta","GA","30349","Multifamily","Garden","1990",240,"0.804","1177.4","1503086.23","1783171.06","32800000","33.59576","-84.41932","1306","74664",4483873,4008013,"Georgia","0.05436497134146341463","12","1435.4418921562500000","-0.17976477735969667070","0.18923175827708132433","0.19047619047619047","0.89387299774101541235"
"Centerview Park","Smyrna","GA","30082","Multifamily","Garden","1965",128,"0.969","1077","991914.54","901474.43","16600000","33.89543","-84.54312","1306","74664",4483873,4008013,"Georgia","0.05430568855421686747","13","1435.4418921562500000","-0.24970839580125132864","0.17309546769527483124","0.14285714285714285","0.89387299774101541235"
"Ashley Woods","Stockbridge","GA","30281","Multifamily","Garden","1991",128,"0.961","1208","1169082.57","1194170.52","22000000","33.51691","-84.22987","1306","74664",4483873,4008013,"Georgia","0.05428047818181818182","14","1435.4418921562500000","-0.15844730002591606778","0.19414979106396657023","0.20634920634920634","0.89387299774101541235"
"Dalton Beach Club And The Valley Apartments","Dalton","GA","30720","Multifamily","Townhome","1984",187,"0.93","1045.5","1134875.82","1135961.79","21000000",NULL,NULL,"1306","74664",4483873,4008013,"Georgia","0.05409341857142857143","15","1435.4418921562500000","-0.27165285776249606694","0.16803278688524590164","0.12698412698412698","0.89387299774101541235"
"Royal Point Apartment Homes","Kingsland","GA","31548","Multifamily","Garden","2000",144,"0.938","1367.96","1401989.32","1432185.44","26800000","30.80352","-81.63376","1306","74664",4483873,4008013,"Georgia","0.05343975522388059701","16","1435.4418921562500000","-0.04701123223795707292","0.21985856637737062038","0.3968253968253968","0.89387299774101541235"
"Monarch Villas","Atlanta","GA","30342","Multifamily","Garden","1970",130,"0.977","1312","1344313.62","1315565.9","25000000","33.90911","-84.38836","1306","74664",4483873,4008013,"Georgia","0.05262263600000000000","17","1435.4418921562500000","-0.08599574307450486832","0.21086467373834779814","0.31746031746031744","0.89387299774101541235"
"Cortland At The Village I","Smyrna","GA","30080","Multifamily","Garden","1983",301,"0.917","1879","3874595.24","4174745.22","80300000","33.89522","-84.48865","1306","74664",4483873,4008013,"Georgia","0.05198935516811955168","18","1435.4418921562500000","0.30900457222790042106","0.30199292831886853102","0.9206349206349206","0.89387299774101541235"
"Lealand Place","Lawrenceville","GA","30044","Multifamily","Garden","1998",192,"0.99","1336.16","1922801.5","2029182.11","39100000","33.93526","-84.09221","1306","74664",4483873,4008013,"Georgia","0.05189724066496163683","19","1435.4418921562500000","-0.06916468907502318968","0.21474766955962712954","0.3333333333333333","0.89387299774101541235"
"The Aurora At Twenty Seven Hundred","Lilburn","GA","30047","Multifamily","Garden","1985",280,"0.961","1360","2902794.05","2771243","53800000","33.89822","-84.16174","1306","74664",4483873,4008013,"Georgia","0.05151009293680297398","20","1435.4418921562500000","-0.05255656294308431472","0.21857923497267759563","0.38095238095238093","0.89387299774101541235"
